 "stop_id","stop_code","stop_name","stop_desc","stop_lat","stop_lon","location_type","parent_station","wheelchair_boarding","platform_code","zone_id"
000009099839,"","Wilhelmshaven ZOB/Bahnhof",,"53.518686000000","8.118223000000",0,,0,"","110-110"
000009099793,"","Wilhelmshaven Peterstraße",,"53.520760000000","8.123650000000",0,,0,"","110-110"
000009099700,"","Wilhelmshaven Bismarckplatz",,"53.525840000000","8.126794000000",0,,0,"","110-110"
000009099829,"","Wilhelmshaven Ulmenstraße",,"53.528733000000","8.125885000000",0,,0,"","110-110"
000009099783,"","Wilhelmshaven Mühlenweg",,"53.532323000000","8.126190000000",0,,0,"","110-110"
000009099738,"","Wilhelmshaven Hegelstraße",,"53.536196000000","8.124706000000",0,,0,"","110-110"
000009099724,"","Wilhelmshaven Friedenstraße",,"53.539818000000","8.122300000000",0,,0,"","110-110"
000009106017,"","Wilhelmshaven Nordseestation",,"53.544414000000","8.119331000000",0,,0,"","110-110"
000009099735,"","Wilhelmshaven Hauffstraße",,"53.547650000000","8.114565000000",0,,0,"","110-110"
000009099680,"","Wilhelmshaven Ackerstraße",,"53.549789000000","8.111065000000",0,,0,"","110-110"
000009099754,"","Wilhelmshaven Johann-Sebastian-Bach-Straße",,"53.552722000000","8.106389000000",0,,0,"","110-110"
000009099699,"","Wilhelmshaven Betriebshof Maadebrücke",,"53.561106000000","8.103833000000",0,,0,"","110-110"
000009099762,"","Wilhelmshaven Klinkerstraße",,"53.566765000000","8.099374000000",0,,0,"","111-111"
000009099795,"","Wilhelmshaven Plauenstraße / Freibad Nord",,"53.569512000000","8.095459000000",0,,0,"","111-111"
000009099796,"","Wilhelmshaven Posener Straße",,"53.574641000000","8.092345000000",0,,0,"","111-111"
000009099787,"","Wilhelmshaven Nogatstraße",,"53.577480000000","8.091612000000",0,,0,"","111-111"
000009099765,"","Wilhelmshaven Kniprodestraße",,"53.580426000000","8.090900000000",0,,0,"","111-111"
000009099742,"","Wilhelmshaven Hunrichsstraße",,"53.584548000000","8.099555000000",0,,0,"","111-111"
000009099831,"","Wilhelmshaven Voslapp Markt",,"53.586051000000","8.102248000000",0,,0,"","111-111"
000009099824,"","Wilhelmshaven Tengestraße",,"53.588010000000","8.101694000000",0,,0,"","111-111"
000009099689,"","Wilhelmshaven Bakenstraße",,"53.590450000000","8.099301000000",0,,0,"","111-111"
000009099770,"","Wilhelmshaven Leuchtturmstraße",,"53.592737000000","8.097032000000",0,,0,"","111-111"
000009099683,"","Wilhelmshaven Alt-Voslapp",,"53.595349000000","8.093654000000",0,,0,"","111-111"
000009099825,"","Wilhelmshaven Tiarksstraße",,"53.584089000000","8.105491000000",0,,0,"","111-111"
000009099714,"","Wilhelmshaven Ebbestraße",,"53.580593000000","8.108985000000",0,,0,"","111-111"
000009099832,"","Wilhelmshaven Voslapp Süd",,"53.578391000000","8.110073000000",0,,0,"","111-111"
000009099681,"","Wilhelmshaven Albrechtstraße",,"53.574998000000","8.097357000000",0,,0,"","111-111"
000009099782,"","Wilhelmshaven Möwenstraße",,"53.575964000000","8.102137000000",0,,0,"","111-111"
000009099713,"","Wilhelmshaven Deichstraße",,"53.516246000000","8.114036000000",0,,0,"","110-110"
000009099818,"","Wilhelmshaven Luisenstraße",,"53.516737000000","8.106367000000",0,,0,"","110-110"
000009099691,"","Wilhelmshaven Banter Markt",,"53.518301000000","8.099203000000",0,,0,"","110-110"
000009099690,"","Wilhelmshaven Banter Kirche",,"53.522277000000","8.098851000000",0,,0,"","110-110"
000009099707,"","Wilhelmshaven Bremer Straße",,"53.524545000000","8.098452000000",0,,0,"","110-110"
000009099701,"","Wilhelmshaven Bismarckstraße",,"53.527663000000","8.098521000000",0,,0,"","110-110"
000009099821,"","Wilhelmshaven Stettiner Straße",,"53.528624000000","8.104390000000",0,,0,"","110-110"
000009099799,"","Wilhelmshaven Rathaus",,"53.528574000000","8.110325000000",0,,0,"","110-110"
000009099781,"","Wilhelmshaven Mozartstraße",,"53.527842000000","8.115890000000",0,,0,"","110-110"
000009099709,"","Wilhelmshaven Bülowstraße",,"53.527028000000","8.121230000000",0,,0,"","110-110"
000009099775,"","Wilhelmshaven Margaretenstraße",,"53.526135000000","8.131254000000",0,,0,"","110-110"
000009099740,"","Wilhelmshaven Heppenser Straße",,"53.528211000000","8.134378000000",0,,0,"","110-110"
000009099817,"","Wilhelmshaven Siedlerweg",,"53.526898000000","8.136704000000",0,,0,"","110-110"
000009099807,"","Wilhelmshaven Saarbrücker Straße",,"53.526671000000","8.138911000000",0,,0,"","110-110"
000009099705,"","Wilhelmshaven Borkumstraße",,"53.528530000000","8.140027000000",0,,0,"","110-110"
000009099788,"","Wilhelmshaven Norderneystraße",,"53.531249000000","8.140092000000",0,,0,"","110-110"
000009099755,"","Wilhelmshaven Kaiser-Wilhelm-Brücke",,"53.515111000000","8.134494000000",0,,0,"","110-110"
000009099784,"","Wilhelmshaven Nahestraße",,"53.515267000000","8.130043000000",0,,0,"","110-110"
000009099682,"","Wilhelmshaven Küstenmuseum Allerstraße",,"53.515502000000","8.126541000000",0,,0,"","110-110"
000009099791,"","Wilhelmshaven Pauline-Ahlsdorff-Haus",,"53.515880000000","8.120488000000",0,,0,"","110-110"
000009099708,"","Wilhelmshaven Börsenplatz",,"53.520506000000","8.115394000000",0,,0,"","110-110"
000009099819,"","Wilhelmshaven Stadthalle",,"53.522114000000","8.109877000000",0,,0,"","110-110"
000009099780,"","Wilhelmshaven Mitscherlichstraße",,"53.522258000000","8.106809000000",0,,0,"","110-110"
000009099789,"","Wilhelmshaven Oldeoogestraße",,"53.522547000000","8.102264000000",0,,0,"","110-110"
000009099767,"","Wilhelmshaven Kolberger Straße",,"53.522981000000","8.096683000000",0,,0,"","110-110"
000009099694,"","Wilhelmshaven Banter Weg/Peterstraße",,"53.523094000000","8.093703000000",0,,0,"","110-110"
000009099729,"","Wilhelmshaven Genossenschaftsstraße",,"53.523468000000","8.088599000000",0,,0,"","110-110"
000009099752,"","Wilhelmshaven Jadeviertel",,"53.525401000000","8.092221000000",0,,0,"","110-110"
000009099726,"","Wilhelmshaven Friedrich-Paffrath-Straße",,"53.528915000000","8.092640000000",0,,0,"","110-110"
000009099717,"","Wilhelmshaven Europaviertel",,"53.528754000000","8.086298000000",0,,0,"","110-110"
000009099728,"","Wilhelmshaven Gartenweg",,"53.531772000000","8.084605000000",0,,0,"","110-110"
000009099811,"","Wilhelmshaven Schaarreihe",,"53.533255000000","8.081142000000",0,,0,"","110-110"
000009099810,"","Wilhelmshaven Schaardreieck",,"53.536340000000","8.077998000000",0,,0,"","110-110"
000009099772,"","Wilhelmshaven Maadestraße",,"53.539585000000","8.080552000000",0,,0,"","110-110"
000009099833,"","Wilhelmshaven Weidenstraße",,"53.540146000000","8.086079000000",0,,0,"","110-110"
000009099769,"","Wilhelmshaven Kurt-Schumacher-Straße",,"53.544173000000","8.076128000000",0,,0,"","110-110"
000009099697,"","Wilhelmshaven Beringallee",,"53.547428000000","8.075140000000",0,,0,"","110-110"
000009099766,"","Wilhelmshaven Knud-Rasmussen-Straße",,"53.549182000000","8.077123000000",0,,0,"","110-110"
000009099822,"","Wilhelmshaven Sven-Hedin-Straße",,"53.549464000000","8.079968000000",0,,0,"","110-110"
000009099806,"","Wilhelmshaven SPAR & BAU/Grenzstraße",,"53.523422000000","8.111692000000",0,,0,"","110-110"
000009099716,"","Wilhelmshaven Edo-Wiemken-Straße",,"53.531108000000","8.105529000000",0,,0,"","110-110"
000009099803,"","Wilhelmshaven Robodesweg",,"53.532351000000","8.099432000000",0,,0,"","110-110"
000009099827,"","Wilhelmshaven Tom-Brok-Straße",,"53.531204000000","8.093258000000",0,,0,"","110-110"
000009099744,"","Wilhelmshaven IGS/Am Wiesenhof",,"53.535310000000","8.089649000000",0,,0,"","110-110"
000009099719,"","Wilhelmshaven Feldmark",,"53.537688000000","8.088007000000",0,,0,"","110-110"
000009099734,"","Wilhelmshaven Harlinger Weg",,"53.552415000000","8.087539000000",0,,0,"","110-110"
000009099696,"","Wilhelmshaven Benlepstraße",,"53.555122000000","8.089578000000",0,,0,"","110-110"
000009099834,"","Wilhelmshaven Werdumer Platz",,"53.556131000000","8.093412000000",0,,0,"","110-110"
000009099695,"","Wilhelmshaven Beethovenstraße",,"53.553688000000","8.095894000000",0,,0,"","110-110"
000009099801,"","Wilhelmshaven Richard-Strauß-Weg",,"53.550966000000","8.099648000000",0,,0,"","110-110"
000009099836,"","Wilhelmshaven Werftstraße (Weserstraße)",,"53.516664000000","8.101295000000",0,,0,"","110-110"
000009099761,"","Wilhelmshaven Klinikum/Jadehochschule",,"53.545955000000","8.085824000000",0,,0,"","110-110"
000009099808,"","Wilhelmshaven Salzastraße",,"53.573480000000","8.085577000000",0,,0,"","111-111"
000009099800,"","Wilhelmshaven Rehazentrum",,"53.523602000000","8.124550000000",0,,0,"","110-110"
000009014638,"","Brettorf",,"52.967141000000","8.447080000000",0,,0,"","620-1620"
000009014517,"","Bremerhaven-Wulsdorf",,"53.508514000000","8.612203000000",0,,0,"","250-1250"
000008001486,"","Dörpen",,"52.959011000000","7.353268000000",0,,0,"","Dörpen-DÖR"
000009082190,"","Schneverdingen",,"53.111421000000","9.798702000000",0,,0,"","11-11"
000009022104,"","Dörverden",,"52.846376000000","9.246302000000",0,,0,"","140-1140"
000009072963,"","Pansdorf",,"53.981034000000","10.703056000000",0,,0,"","5795-5797"
000008004751,"","Papenburg",,"53.089706000000","7.386708000000",0,,0,"","Papenburg-PAP"
000009026265,"","Eutin(Bahn)",,"54.135386000000","10.610056000000",0,,0,"","5500-5501"
000009026493,"","Eystrup",,"52.783460000000","9.231080000000",0,,0,"","150-1150"
000008010205,"","Leipzig Hbf",,"51.345501000000","12.382216000000",0,,0,"",""
000008010203,"","Leinefelde",,"51.388752000000","10.329296000000",0,,0,"",""
000009091940,"","Tönning",,"54.313988000000","8.937873000000",0,,0,"","1320-1324"
000008000725,"","Bad Münder",,"52.177891000000","9.468143000000",0,,0,"","4-4"
000008005888,"","Tostedt",,"53.272046000000","9.732013000000",0,,0,"","304-50"
000008002369,"","Greven",,"52.089829000000","7.599341000000",0,,0,"","NRW-NRW"
000009086728,"","Stadtoldendorf",,"51.881002000000","9.620519000000",0,,0,"","Stadtoldendorf-3550"
000008005662,"","Stadthagen",,"52.332876000000","9.189524000000",0,,0,"","5-5"
000008005663,"","Hamburg Stadthausbrücke",,"53.549465000000","9.984804000000",0,,0,"","100-9"
000008000286,"","Oberhausen(Rheinl) Hbf",,"51.474878000000","6.851588000000",0,,0,"",""
000008005704,"","Steinhagen(Westf)",,"52.017383000000","8.421002000000",0,,0,"","KNT-KNT"
000008000282,"","Nordstemmen",,"52.167641000000","9.790458000000",0,,0,"","150-150"
000009068704,"","Northeim",,"51.703271000000","9.986607000000",0,,0,"","Northeim-3400"
000009087204,"","Steinfeld(Oldb)",,"52.592579000000","8.197948000000",0,,0,"","Steinfeld(Oldb)-STE"
000008005708,"","Steinheim(Westf)",,"51.868177000000","9.088447000000",0,,0,"","KNT-KNT"
000008013158,"","Uchtspringe",,"52.543674000000","11.592243000000",0,,0,"",""
000009018496,"","Cuxhaven Fährhafen",,"53.875895000000","8.701567000000",0,,0,"","1-1"
000009018458,"","Cuxhaven Alte Liebe (Fähre)",,"53.871767000000","8.709630000000",0,,0,"","1-1"
000008002978,"","Bad Holzhausen",,"52.289097000000","8.545854000000",0,,0,"",""
000008001045,"","Hamm-Bockum-Hövel",,"51.704809000000","7.774547000000",0,,0,"",""
000008003312,"","Hamburg Klein Flottbek (Botanischer Garten)",,"53.558169000000","9.861122000000",0,,0,"","201-31"
000008001048,"","Bodenburg",,"52.032950000000","10.004039000000",0,,0,"","192-192"
000009012206,"","Borkum Reede",,"53.563598000000","6.756451000000",0,,0,"",""
000009014331,"","Bremen-Vegesack",,"53.169760000000","8.629996000000",0,,0,"","101-1101"
000009014333,"","Bremen-Walle",,"53.103808000000","8.786209000000",0,,0,"","100-1100"
000009014326,"","Bremen-Sebaldsbrück (Zug)",,"53.061133000000","8.887807000000",0,,0,"","100-1100"
000009014329,"","Bremen-St. Magnus",,"53.171574000000","8.669636000000",0,,0,"","101-1101"
000009014324,"","Bremen-Oslebshausen",,"53.135308000000","8.741053000000",0,,0,"","100-1100"
000009014325,"","Bremen-Schönebeck",,"53.172775000000","8.649133000000",0,,0,"","101-1101"
000009014053,"","Bremen Mahndorf",,"53.039748000000","8.944614000000",0,,0,"","100-1100"
000009014323,"","Bremen-Oberneuland",,"53.087177000000","8.937892000000",0,,0,"","100-1100"
000008003036,"","Ibbenbüren",,"52.276867000000","7.721486000000",0,,0,"","NRW-NRW"
000008012666,"","Potsdam Hbf",,"52.391509000000","13.066703000000",0,,0,"",""
000009044628,"","Husby",,"54.764372000000","9.575505000000",0,,0,"","1525-1528"
000009014515,"","Bremerhaven-Lehe",,"53.566424000000","8.600774000000",0,,0,"","250-1250"
000009044595,"","Huntlosen",,"52.990959000000","8.266480000000",0,,0,"","930-1930"
000008004744,"","Paderborn Kasseler Tor",,"51.716161000000","8.761260000000",0,,0,"",""
000008004745,"","Paderborn Nord",,"51.728070000000","8.758954000000",0,,0,"",""
000008012705,"","Rätzlingen(b Haldensleben)",,"52.409035000000","11.123409000000",0,,0,"",""
000009072711,"","Owschlag",,"54.392440000000","9.590646000000",0,,0,"","3160-3162"
000009068334,"","Nordholz(b Bremerhaven)",,"53.778706000000","8.621399000000",0,,0,"","280-1280"
000008006144,"","Wahrenholz",,"52.608002000000","10.606954000000",0,,0,"","11-11"
000008010312,"","Sangerhausen",,"51.479891000000","11.294515000000",0,,0,"","PH-PH"
000008003929,"","Meckelfeld",,"53.424380000000","10.029711000000",0,,0,"","9900-96"
000008004227,"","Neetzendorf",,"53.163784000000","10.760576000000",0,,0,"","HVV-HVV"
000008010032,"","Berga-Kelbra",,"51.452170000000","11.014599000000",0,,0,"","PH-PH"
000008000434,"","Agathenburg",,"53.564111000000","9.531244000000",0,,0,"","HVV-HVV"
000008002785,"","Herrenberg",,"48.593991000000","8.862662000000",0,,0,"",""
000008005776,"","Stuttgart-Vaihingen",,"48.726279000000","9.113226000000",0,,0,"",""
000009062938,"","Munster(Örtze)",,"52.993347000000","10.096231000000",0,,0,"","14-14"
000008011468,"","Eisenach(Thür) West",,"50.978902000000","10.304740000000",0,,0,"",""
000008002841,"","Münster-Hiltrup",,"51.904755000000","7.654281000000",0,,0,"",""
000008003542,"","Langenhagen(Han) Pferdemarkt",,"52.450993000000","9.735882000000",0,,0,"","105-105"
000008003541,"","Hamburg-Langenfelde",,"53.579692000000","9.930920000000",0,,0,"","101-18"
000008002967,"","Holm-Seppensen",,"53.284812000000","9.870008000000",0,,0,"","HVV-HVV"
000008005415,"","Schötmar",,"52.069935000000","8.754951000000",0,,0,"",""
000008000392,"","Holzwickede",,"51.504767000000","7.619647000000",0,,0,"",""
000009043174,"","Holdorf(Oldb)",,"52.574816000000","8.138050000000",0,,0,"","Holdorf(Oldb)-HOL"
000008005413,"","Schöppenstedt",,"52.140692000000","10.772047000000",0,,0,"","73-73"
000009043630,"","Holzminden",,"51.820005000000","9.453623000000",0,,0,"","Holzminden-3500"
000008002969,"","Holtensen/Linderte",,"52.271953000000","9.653221000000",0,,0,"","2-2"
000008003267,"","Kirchdorf(Deister)",,"52.289852000000","9.491936000000",0,,0,"","3-3"
000008004838,"","Plettenberg",,"51.231930000000","7.868913000000",0,,0,"",""
000008005534,"","Sennelager",,"51.770240000000","8.713704000000",0,,0,"",""
000008005535,"","Sennestadt",,"51.940582000000","8.567477000000",0,,0,"",""
000008011228,"","Bösdorf(Sachs-Anh)",,"52.422099000000","11.064149000000",0,,0,"",""
000008079069,"","Oldentrup",,"52.010279000000","8.590814000000",0,,0,"",""
000008003309,"","Klecken",,"53.366207000000","9.928922000000",0,,0,"","9900-554"
000008013291,"","Werther b Nordhausen",,"51.469932000000","10.741910000000",0,,0,"",""
000009013794,"","Bremen-Burg",,"53.160602000000","8.704687000000",0,,0,"","101-1101"
000009014318,"","Bremen-Hemelingen",,"53.054479000000","8.886823000000",0,,0,"","100-1100"
000009014095,"","Bremen Neustadt",,"53.075897000000","8.785927000000",0,,0,"","100-1100"
000008003020,"","Siegen-Weidenau",,"50.895966000000","8.029842000000",0,,0,"",""
000009014321,"","Bremen-Lesum",,"53.170691000000","8.686548000000",0,,0,"","101-1101"
000008003699,"","Lindhorst(b Stadthagen)",,"52.354320000000","9.288867000000",0,,0,"","4-4"
000008000880,"","Radolfzell",,"47.735873000000","8.968984000000",0,,0,"",""
000009077735,"","Rieste",,"52.484937000000","8.010753000000",0,,0,"","693-7693"
000009077715,"","Rieseby",,"54.541358000000","9.820489000000",0,,0,"","3460-3465"
000009067997,"","Nordenham",,"53.483841000000","8.487495000000",0,,0,"","850-1850"
000008011834,"","Hausen(Eichsfeld)",,"51.382523000000","10.379167000000",0,,0,"",""
000009065753,"","Neuharlingersiel Anleger (Fähre)",,"53.701819000000","7.703348000000",0,,0,"","301-301"
000008010261,"","Oebisfelde",,"52.439275000000","10.983852000000",0,,0,"",""
000009003761,"","Augustfehn",,"53.220894000000","7.759622000000",0,,0,"","165-165"
000008000669,"","Aumühle",,"53.529853000000","10.314672000000",0,,0,"","606-170"
000008070146,"","Hamburg Sternschanze",,"53.563719000000","9.967204000000",0,,0,"","100-10"
000008002063,"","Freden(Leine)",,"51.927787000000","9.899006000000",0,,0,"","280-280"
000008002106,"","Hamburg Friedrichsberg",,"53.576328000000","10.057433000000",0,,0,"","105-21"
000009028562,"","Friedland(Kr Göttingen)",,"51.421479000000","9.914869000000",0,,0,"","Friedland-230"
000008002103,"","Ludwigsau-Friedlos",,"50.896879000000","9.743325000000",0,,0,"",""
000008005640,"","Sprötze",,"53.309429000000","9.812245000000",0,,0,"","304-50"
000008002499,"","Hämelerwald",,"52.354704000000","10.110601000000",0,,0,"","101-101"
000009088621,"","Stubben(b Bremerhaven)",,"53.405877000000","8.780526000000",0,,0,"","230-1230"
000008000386,"","Haiger",,"50.741352000000","8.220657000000",0,,0,"",""
000008005405,"","Schönewörde",,"52.628178000000","10.634899000000",0,,0,"","11-11"
000008011219,"","Bodenrode",,"51.393528000000","10.208550000000",0,,0,"",""
000008001739,"","Hamburg Elbgaustraße",,"53.602575000000","9.893738000000",0,,0,"","202-30"
000008003016,"","Hünfeld",,"50.673271000000","9.762453000000",0,,0,"",""
000008012766,"","Riestedt(Sangerhausen)",,"51.484021000000","11.379856000000",0,,0,"",""
000008003137,"","Hamburg Jungfernstieg",,"53.552194000000","9.993883000000",0,,0,"","100-5"
000009068990,"","Nörten-Hardenberg",,"51.628219000000","9.933176000000",0,,0,"","Nörten-Hardenberg-3390"
000009059253,"","Marienhafe Bahnhof",,"53.519898000000","7.273198000000",0,,0,"","518-518"
000008004448,"","Bönen-Nordbögge",,"51.615709000000","7.742200000000",0,,0,"",""
000009067921,"","Norddeich(Norden)",,"53.621522000000","7.160884000000",0,,0,"","500-500"
000008010256,"","Nordhausen",,"51.492920000000","10.789249000000",0,,0,"","PH-PH"
000008010255,"","Berlin Ostbahnhof",,"52.510488000000","13.434681000000",0,,0,"",""
000008004563,"","Oberndorf(Neckar)",,"48.295669000000","8.575514000000",0,,0,"",""
000008003906,"","Maschen",,"53.403815000000","10.065662000000",0,,0,"","9900-95"
000009099578,"","Wildeshausen",,"52.897810000000","8.431398000000",0,,0,"","630-1630"
000008000774,"","Baden-Baden",,"48.790327000000","8.190831000000",0,,0,"",""
000008000772,"","Baddeckenstedt",,"52.089160000000","10.228767000000",0,,0,"","78-78"
000009006466,"","Baden(Achim)",,"53.007850000000","9.081197000000",0,,0,"","110-1110"
000009006417,"","Bad Zwischenahn",,"53.182566000000","8.002996000000",0,,0,"","750-1750"
000009064390,"","Natrup-Hagen",,"52.209497000000","7.910520000000",0,,0,"","Hasbergen-7412"
000009066582,"","Neustadt in Holstein",,"54.104002000000","10.808490000000",0,,0,"","5745-5746"
000009000682,"","Achmer",,"52.390637000000","7.942001000000",0,,0,"","644-7644"
000008004322,"","Neustadt a Rbge Bahnhof",,"52.503325000000","9.455277000000",0,,0,"","3-3"
000009000647,"","Achim(b Bremen) (Zug)",,"53.015994000000","9.030313000000",0,,0,"","110-1110"
000009000761,"","Adelebsen",,"51.577674000000","9.759952000000",0,,0,"","Adelebsen-290"
000008010133,"","Jena-Göschwitz",,"50.883942000000","11.593537000000",0,,0,"",""
000008000532,"","Lennestadt-Altenhundem",,"51.104132000000","8.071517000000",0,,0,"",""
000009029386,"","Ganderkesee",,"53.035181000000","8.542787000000",0,,0,"","720-1720"
000008002484,"","Guxhagen",,"51.204322000000","9.482159000000",0,,0,"",""
000008002946,"","Hamburg Hoheneichen",,"53.635478000000","10.067648000000",0,,0,"","204-34"
000008002944,"","Hoheneggelsen",,"52.200177000000","10.197820000000",0,,0,"","163-163"
000008004819,"","Pinneberg",,"53.655179000000","9.797608000000",0,,0,"","502-69"
000008000096,"","Stuttgart Hbf",,"48.784084000000","9.181635000000",0,,0,"",""
000008000093,"","Elze(Leine)",,"52.120311000000","9.747063000000",0,,0,"","210-210"
000008000090,"","Eichenberg",,"51.374823000000","9.921482000000",0,,0,"","Eichenberg-640"
000008005511,"","Sehnde",,"52.318075000000","9.962528000000",0,,0,"","103-103"
000008000098,"","Essen(Ruhr) Hbf",,"51.451355000000","7.014793000000",0,,0,"",""
000008003002,"","Horneburg",,"53.508677000000","9.576550000000",0,,0,"","HVV-HVV"
000008003000,"","Horn-Bad Meinberg",,"51.881518000000","8.955092000000",0,,0,"",""
000009044456,"","Hoykenkamp",,"53.070040000000","8.598439000000",0,,0,"","710-1710"
000009047071,"","Jever",,"53.568778000000","7.893122000000",0,,0,"","200-200"
000009057131,"","Lunestedt",,"53.439152000000","8.734527000000",0,,0,"","230-1230"
000008006706,"","Hamburg Königstraße",,"53.547796000000","9.944088000000",0,,0,"","101-15"
000009037762,"","Hann. Münden",,"51.412538000000","9.658110000000",0,,0,"","Hann. Münden-300"
000009058101,"","Lübeck-Travemünde Skandinavienkai",,"53.950787000000","10.854029000000",0,,0,"","6007-6024"
000008006705,"","Hamburg Reeperbahn",,"53.549668000000","9.957668000000",0,,0,"","101-8"
000008001283,"","Burghaun(Hünfeld)",,"50.700550000000","9.727953000000",0,,0,"",""
000008005191,"","Hamburg-Rothenburgsort",,"53.538476000000","10.043953000000",0,,0,"","106-25"
000008010240,"","Naumburg(Saale) Hbf",,"51.163071000000","11.796984000000",0,,0,"",""
000008012516,"","Nordhausen-Salza",,"51.515111000000","10.773140000000",0,,0,"","PH-PH"
000008012512,"","Nohra(Wipper)",,"51.443037000000","10.698478000000",0,,0,"",""
000008010366,"","Weimar",,"50.991487000000","11.326458000000",0,,0,"",""
000008003978,"","Meppen",,"52.696021000000","7.298015000000",0,,0,"","Meppen-MEP"
000009065535,"","Neuenkirchen(Oldb)",,"52.508466000000","8.059756000000",0,,0,"","Neuenkirchen(Oldb)-NEU"
000008002634,"","Haste(b Wunstorf)",,"52.379656000000","9.389097000000",0,,0,"","3-3"
000008010004,"","Angermünde",,"53.015221000000","13.996361000000",0,,0,"",""
000008002041,"","Frankfurt(Main) Süd",,"50.099365000000","8.686457000000",0,,0,"",""
000008002166,"","Gäufelden",,"48.559661000000","8.850308000000",0,,0,"",""
000008010125,"","Gera Hbf",,"50.883421000000","12.077092000000",0,,0,"",""
000009044501,"","Hude(Oldb)",,"53.109372000000","8.460953000000",0,,0,"","730-1730"
000008006383,"","Westönnen",,"51.557529000000","7.960952000000",0,,0,"",""
000008001894,"","Espelkamp",,"52.378688000000","8.613358000000",0,,0,"",""
000009025726,"","Esens",,"53.636242000000","7.616100000000",0,,0,"","301-301"
000009025953,"","Essen(Oldb)",,"52.723440000000","7.945422000000",0,,0,"","Essen(Oldb)-ESS"
000009038437,"","Hardegsen",,"51.659021000000","9.825962000000",0,,0,"","Hardegsen-3420"
000009038431,"","Harblek",,"54.361971000000","8.962646000000",0,,0,"","1310-1311"
000008002598,"","Haren(Ems)",,"52.785123000000","7.301428000000",0,,0,"","Haren-HAE"
000008000086,"","Duisburg Hbf",,"51.429785000000","6.775903000000",0,,0,"",""
000008005507,"","Seelze",,"52.391675000000","9.594314000000",0,,0,"","2-2"
000008000085,"","Düsseldorf Hbf",,"51.219962000000","6.794319000000",0,,0,"",""
000008001675,"","Egestorf(Deister)",,"52.278585000000","9.514485000000",0,,0,"","3-3"
000008000080,"","Dortmund Hbf",,"51.517896000000","7.459290000000",0,,0,"",""
000009075570,"","Schwentinental-Raisdorf",,"54.280898000000","10.243684000000",0,,0,"","5120-5122"
000009085426,"","Soltau",,"52.982964000000","9.831503000000",0,,0,"","20-20"
000008000089,"","Stade(Niederelbe)",,"53.596143000000","9.477008000000",0,,0,"","HVV-HVV"
000008001713,"","Eilvese",,"52.545215000000","9.428147000000",0,,0,"","3-3"
000008003784,"","Lügde",,"51.959294000000","9.250830000000",0,,0,"","KNT-KNT"
000008003780,"","Höxter-Lüchtringen",,"51.790928000000","9.427208000000",0,,0,"","Lüchtringen-706"
000008003788,"","Lünern",,"51.543370000000","7.760771000000",0,,0,"",""
000008005182,"","Rotenburg a.d. Fulda",,"50.997855000000","9.733344000000",0,,0,"",""
000008001394,"","Dedinghausen",,"51.672359000000","8.398281000000",0,,0,"",""
000008001392,"","Dedenhausen",,"52.432215000000","10.238730000000",0,,0,"","3-3"
000008001393,"","Dedensen-Gümmer",,"52.407049000000","9.521252000000",0,,0,"","2-2"
000008001390,"","Davensberg",,"51.817943000000","7.598146000000",0,,0,"",""
000008003961,"","Melsungen",,"51.126002000000","9.546079000000",0,,0,"",""
000008005834,"","Telgte",,"51.981193000000","7.780876000000",0,,0,"",""
000008004266,"","Hamburg-Hammerbrook (City Süd)",,"53.546610000000","10.023610000000",0,,0,"","100-4"
000008004267,"","Hamburg-Harburg Rathaus",,"53.460694000000","9.980463000000",0,,0,"","9900-57"
000009006219,"","Bad St Peter Süd",,"54.305010000000","8.648041000000",0,,0,"","1360-1361"
000009006220,"","Bad St Peter-Ording",,"54.317293000000","8.614736000000",0,,0,"","1360-1362"
000008000753,"","Bad Sooden-Allendorf",,"51.267974000000","9.968696000000",0,,0,"",""
000008010073,"","Cottbus Hbf",,"51.750957000000","14.324162000000",0,,0,"",""
000008002628,"","Hamburg Hasselbrook",,"53.564711000000","10.056129000000",0,,0,"","105-24"
000008004302,"","Neukloster(Kr Stade)",,"53.481257000000","9.639721000000",0,,0,"","HVV-HVV"
000008010079,"","Doberlug-Kirchhain",,"51.620576000000","13.564241000000",0,,0,"",""
000008010115,"","Freiberg(Sachs)",,"50.908725000000","13.344141000000",0,,0,"",""
000008000512,"","Hamburg Alte Wöhr (Stadtpark)",,"53.597930000000","10.035415000000",0,,0,"","105-19"
000008000513,"","Altena(Westf)",,"51.301981000000","7.668808000000",0,,0,"",""
000009057819,"","Lübeck Hbf",,"53.867215000000","10.668884000000",0,,0,"","6000-6099"
000008000233,"","Löhne(Westf)",,"52.196653000000","8.713500000000",0,,0,"","NRW-NRW"
000008002586,"","Hannover-Linden Fischerhof",,"52.352636000000","9.723114000000",0,,0,"","1-1"
000008002584,"","Hannover-Kleefeld",,"52.373607000000","9.790610000000",0,,0,"","1-1"
000008002585,"","Hannover-Leinhausen",,"52.396843000000","9.676113000000",0,,0,"","1-1"
000008006095,"","Vöhrum",,"52.335357000000","10.169015000000",0,,0,"","4-4"
000008000238,"","Lüneburg",,"53.249656000000","10.419890000000",0,,0,"","HVV-HVV"
000008002580,"","Hannover Bismarckstraße",,"52.356456000000","9.769728000000",0,,0,"","1-1"
000009094171,"","Visselhövede",,"52.980091000000","9.566641000000",0,,0,"","390-390"
000008000239,"","Lünen Hbf",,"51.617129000000","7.529485000000",0,,0,"",""
000008002581,"","Hannover-Bornum",,"52.350246000000","9.679538000000",0,,0,"","1-1"
000008006091,"","Vlotho",,"52.171800000000","8.864190000000",0,,0,"","NRW-NRW"
000008011544,"","Flechtingen",,"52.347968000000","11.261352000000",0,,0,"",""
000009082689,"","Schwarmstedt",,"52.678710000000","9.624551000000",0,,0,"","4-4"
000009074630,"","Preetz",,"54.233869000000","10.275833000000",0,,0,"","5320-5323"
000008004913,"","Radbruch",,"53.317873000000","10.289618000000",0,,0,"","HVV-HVV"
000008004919,"","Rahden(Westf)",,"52.432902000000","8.623836000000",0,,0,"","14-14"
000008000196,"","Warburg(Westf)",,"51.492953000000","9.163845000000",0,,0,"",""
000008000192,"","Wanne-Eickel Hbf",,"51.531256000000","7.165783000000",0,,0,"",""
000008000193,"","Kassel Hbf",,"51.318260000000","9.489501000000",0,,0,"",""
000008003348,"","Knesebeck",,"52.677812000000","10.690267000000",0,,0,"","13-13"
000008080630,"","Halle(Westf) OWL-Arena",,"52.061643000000","8.343797000000",0,,0,"","KNT-KNT"
000008000191,"","Karlsruhe Hbf",,"48.993515000000","8.402181000000",0,,0,"",""
000009049079,"","Kiel Hbf",,"54.314206000000","10.131429000000",0,,0,"","4000-4001"
000008003064,"","Immensen-Arpke",,"52.391356000000","10.084479000000",0,,0,"","101-101"
000008001420,"","Detmold",,"51.940745000000","8.872859000000",0,,0,"",""
000009081103,"","Scheeßel",,"53.165830000000","9.496967000000",0,,0,"","350-350"
000008001429,"","Dettum",,"52.156721000000","10.660757000000",0,,0,"","72-72"
000008003491,"","Ibbenbüren-Laggenbeck",,"52.264860000000","7.780962000000",0,,0,"","NRW-NRW"
000009060340,"","Melle",,"52.209431000000","8.341699000000",0,,0,"","Bruchmühlen-7368"
000008003957,"","Mellendorf",,"52.548199000000","9.744501000000",0,,0,"","3-3"
000009099266,"","Wieren",,"52.892582000000","10.655640000000",0,,0,"","2008-2008"
000009090089,"","Tating",,"54.322847000000","8.709512000000",0,,0,"","1350-1351"
000009090046,"","Tarp",,"54.664705000000","9.398465000000",0,,0,"","1565-1567"
000008000744,"","Bad Salzuflen",,"52.081628000000","8.740428000000",0,,0,"",""
000008000745,"","Bad Sassendorf",,"51.587168000000","8.162439000000",0,,0,"",""
000008000740,"","Bad Salzdetfurth",,"52.062564000000","10.005407000000",0,,0,"","191-191"
000008004251,"","Neubeckum",,"51.801951000000","8.021360000000",0,,0,"",""
000009100922,"","Witzwort",,"54.386097000000","8.998558000000",0,,0,"","1310-1315"
000008006524,"","Witzenhausen Nord",,"51.351665000000","9.863042000000",0,,0,"","VSN-VSN"
000009038878,"","Hasbergen",,"52.241719000000","7.953787000000",0,,0,"","412-7412"
000009100862,"","Wittmund",,"53.579868000000","7.788826000000",0,,0,"","300-300"
000009006090,"","Bad Schwartau",,"53.916295000000","10.702754000000",0,,0,"","5515-5516"
000008002737,"","Helpup",,"51.977380000000","8.714725000000",0,,0,"",""
000008010105,"","Eisenach(Thür) Opelwerk Hp",,"50.979334000000","10.283491000000",0,,0,"",""
000008010101,"","Erfurt Hbf",,"50.972551000000","11.038499000000",0,,0,"",""
000009071500,"","Osnabrück Altstadt",,"52.281229000000","8.045294000000",0,,0,"","100-7100"
000008000226,"","Lehrte(b Hannover)",,"52.376722000000","9.974599000000",0,,0,"","101-101"
000008000227,"","Letmathe",,"51.362838000000","7.618397000000",0,,0,"",""
000009054173,"","Leer(Ostfriesl)",,"53.231410000000","7.465229000000",0,,0,"","600-600"
000008006089,"","Hannover-Vinnhorst",,"52.424043000000","9.707729000000",0,,0,"","1-1"
000008004862,"","Hamburg-Poppenbüttel",,"53.652183000000","10.094034000000",0,,0,"","304-50"
000008004868,"","Porta Westfalica",,"52.243423000000","8.920253000000",0,,0,"","NRW-NRW"
000008002299,"","Godelheim",,"51.735123000000","9.356871000000",0,,0,"","NRW-NRW"
000009022679,"","Eckernförde",,"54.467793000000","9.834919000000",0,,0,"","3400-3401"
000009084555,"","Sierksdorf",,"54.068523000000","10.769108000000",0,,0,"","5755-5756"
000008004908,"","Quelle",,"52.000278000000","8.461319000000",0,,0,"","KNT-KNT"
000008001777,"","Emmerthal",,"52.046489000000","9.383247000000",0,,0,"","6-6"
000008005207,"","Hamburg Rübenkamp",,"53.605968000000","10.033083000000",0,,0,"","105-22"
000008001774,"","Emmerich [Grenze]",,"51.901194000000","6.137652000000",0,,0,"",""
000008000185,"","Gifhorn",,"52.456155000000","10.545284000000",0,,0,"","10-10"
000008001775,"","Emmerke",,"52.162365000000","9.866201000000",0,,0,"","151-151"
000009044660,"","Husum",,"54.472036000000","9.056426000000",0,,0,"","1000-1001"
000008003053,"","Fuldatal-Ihringshausen",,"51.348591000000","9.526070000000",0,,0,"",""
000009005205,"","Bad Lauterberg im Harz Barbis",,"51.618900000000","10.414785000000",0,,0,"","Barbis-3138"
000008005322,"","Scharmede",,"51.711790000000","8.645240000000",0,,0,"",""
000008005320,"","Schandelah",,"52.267317000000","10.685824000000",0,,0,"","71-71"
000009080952,"","Scharbeutz",,"54.018792000000","10.745737000000",0,,0,"","5815-5816"
000008001537,"","Dortmund-Kurl",,"51.556979000000","7.585291000000",0,,0,"",""
000008001533,"","Dortmund-Kirchderne",,"51.547075000000","7.510105000000",0,,0,"",""
000008001530,"","Dortmund-Derne",,"51.567716000000","7.528822000000",0,,0,"",""
000008011138,"","Bennungen",,"51.464006000000","11.122989000000",0,,0,"","PH-PH"
000008003487,"","Hannover Messe/Laatzen",,"52.316899000000","9.792863000000",0,,0,"","2-2"
000008011862,"","Hermsdorf-Klosterlausnitz",,"50.903779000000","11.858626000000",0,,0,"",""
000008006750,"","Hamburg-Neuwiedenthal",,"53.473059000000","9.877434000000",0,,0,"","9900-59"
000008011860,"","Heringen(Helme)",,"51.451498000000","10.875255000000",0,,0,"","PH-PH"
000008003947,"","Meine",,"52.381353000000","10.535812000000",0,,0,"","16-16"
000008005810,"","Sylbach",,"52.026884000000","8.765529000000",0,,0,"",""
000008003949,"","Meinersen",,"52.449188000000","10.321114000000",0,,0,"","17-17"
000008004247,"","Neu Wulmstorf(Niederelbe)",,"53.473046000000","9.788432000000",0,,0,"","9900-496"
000008004241,"","Hamburg-Nettelnburg",,"53.487888000000","10.181408000000",0,,0,"","506-91"
000008002607,"","Harsum",,"52.207552000000","9.965762000000",0,,0,"","110-110"
000008001095,"","Borgholzhausen",,"52.085229000000","8.266579000000",0,,0,"","KNT-KNT"
000008001093,"","Borgeln",,"51.598265000000","8.032033000000",0,,0,"",""
000008010054,"","Blankenheim(Sangerhausen)",,"51.502781000000","11.426004000000",0,,0,"",""
000008010055,"","Bleicherode Ost",,"51.453175000000","10.608882000000",0,,0,"",""
000008005930,"","Ubbedissen",,"51.988447000000","8.637579000000",0,,0,"",""
000008010050,"","Bitterfeld",,"51.622861000000","12.316850000000",0,,0,"",""
000008006236,"","Wedel(Holstein)",,"53.581995000000","9.705161000000",0,,0,"","501-65"
000008006233,"","Weddel(Cremlingen)",,"52.269118000000","10.623494000000",0,,0,"","71-71"
000008012328,"","Meitzendorf",,"52.209394000000","11.558967000000",0,,0,"",""
000008004000,"","Rheine-Mesum",,"52.223134000000","7.485613000000",0,,0,"","NRW-NRW"
000008000571,"","Lippstadt",,"51.670687000000","8.348785000000",0,,0,"",""
000008000578,"","Hannover Anderten-Misburg",,"52.369161000000","9.861109000000",0,,0,"","1-1"
000008004127,"","Münchehof(Harz)",,"51.848306000000","10.188654000000",0,,0,"","84-84"
000008000214,"","Kreuztal",,"50.956029000000","7.991696000000",0,,0,"",""
000008000215,"","Lage(Lippe)",,"51.991742000000","8.801199000000",0,,0,"",""
000009051354,"","Kreiensen",,"51.851961000000","9.966566000000",0,,0,"","Kreiensen-3480"
000009047298,"","Jübek",,"54.558783000000","9.405379000000",0,,0,"","1790-1791"
000009054304,"","Leese-Stolzenau",,"52.509522000000","9.110145000000",0,,0,"","11-11"
000008013470,"","Bernau(b Berlin)",,"52.675569000000","13.592641000000",0,,0,"",""
000008006197,"","Hamburg-Tonndorf",,"53.586385000000","10.123050000000",0,,0,"","205-38"
000009095752,"","Walsrode",,"52.865335000000","9.601185000000",0,,0,"","33-33"
000009030808,"","Gittelde/Bad Grund (Harz)",,"51.787240000000","10.203017000000",0,,0,"","Bad Grund-3109"
000008004851,"","Poggenhagen(Neustadt a Rbge)",,"52.467307000000","9.453972000000",0,,0,"","3-3"
000008070086,"","Hannover Karl-Wiechert-Allee",,"52.374417000000","9.808116000000",0,,0,"","1-1"
000008006198,"","Hamburg Wandsbeker Chaussee",,"53.569734000000","10.059975000000",0,,0,"","105-23"
000008001646,"","Echem",,"53.337006000000","10.537198000000",0,,0,"","HVV-HVV"
000009022597,"","Ebstorf",,"53.017205000000","10.416907000000",0,,0,"","117-117"
000008004972,"","Reckenfeld",,"52.133696000000","7.564753000000",0,,0,"","NRW-NRW"
000009076048,"","Rechterfeld",,"52.838775000000","8.391223000000",0,,0,"","Rechterfeld-REC"
000008005276,"","Salzkotten",,"51.672875000000","8.600489000000",0,,0,"",""
000009024249,"","Emden(Ostfriesl) Außenhafen",,"53.344499000000","7.186394000000",0,,0,"","150-150"
000008005274,"","Salzgitter-Thiede",,"52.180553000000","10.493609000000",0,,0,"","60-60"
000008005275,"","Salzgitter-Watenstedt",,"52.150168000000","10.407398000000",0,,0,"","60-60"
000009024103,"","Elsfleth",,"53.233892000000","8.464001000000",0,,0,"","830-1830"
000008005270,"","Salzgitter-Lebenstedt",,"52.151155000000","10.332490000000",0,,0,"","60-60"
000008003635,"","Lemmie",,"52.285104000000","9.608572000000",0,,0,"","2-2"
000009054785,"","Lemförde",,"52.460181000000","8.361644000000",0,,0,"","570-1570"
000008003633,"","Lemgo",,"52.022400000000","8.894696000000",0,,0,"",""
000009024289,"","Emden(Ostfriesl) Hbf",,"53.369251000000","7.195502000000",0,,0,"","150-150"
000009007618,"","Bavendorf",,"53.187474000000","10.629537000000",0,,0,"","47-47"
000008003165,"","Langenhagen(Han) Kaltenweide",,"52.480085000000","9.736342000000",0,,0,"","105-105"
000008001522,"","Dortmund Signal Iduna Park",,"51.490728000000","7.457573000000",0,,0,"",""
000008001523,"","Dortmund-Aplerbeck",,"51.490151000000","7.553189000000",0,,0,"",""
000008003168,"","Kamen",,"51.585224000000","7.661000000000",0,,0,"",""
000008003169,"","Kamen-Methler",,"51.567379000000","7.613056000000",0,,0,"",""
000008005039,"","Baunatal-Rengershausen",,"51.254922000000","9.468667000000",0,,0,"",""
000008013194,"","Vinzelberg",,"52.569185000000","11.671960000000",0,,0,"",""
000008006749,"","Hamburg-Heimfeld",,"53.465481000000","9.963187000000",0,,0,"","9900-55"
000008006466,"","Windelsbleiche",,"51.957007000000","8.531378000000",0,,0,"",""
000009089375,"","Syke",,"52.916422000000","8.809733000000",0,,0,"","520-1520"
000009039486,"","Hedemünden",,"51.392173000000","9.761636000000",0,,0,"","Hedemünden-3303"
000008001083,"","Bonn-Beuel",,"50.738476000000","7.127657000000",0,,0,"",""
000009100649,"","Wissingen",,"52.258233000000","8.205009000000",0,,0,"","NRW-NRW"
000008001080,"","Bondorf(b Herrenberg)",,"48.523552000000","8.827662000000",0,,0,"",""
000008012279,"","Lutherstadt Eisleben",,"51.518194000000","11.550799000000",0,,0,"",""
000009011521,"","Bookholzberg",,"53.099112000000","8.532556000000",0,,0,"","720-1720"
000008000446,"","Ahrensburg",,"53.669171000000","10.236206000000",0,,0,"","505-87"
000009001252,"","Ahlhorn",,"52.899257000000","8.209424000000",0,,0,"","930-1930"
000008000443,"","Ahlten",,"52.376062000000","9.904613000000",0,,0,"","101-101"
000008000441,"","Ahlen(Westfalen)",,"51.761062000000","7.895488000000",0,,0,"",""
000009091901,"","Twistringen",,"52.791729000000","8.644623000000",0,,0,"","540-1540"
000008002716,"","Heinebach",,"51.045739000000","9.664423000000",0,,0,"",""
000008000569,"","Münster-Amelsbüren",,"51.883662000000","7.598897000000",0,,0,"",""
000008070237,"","Helgoland(Südhafen)",,"54.177022000000","7.891169000000",0,,0,"","-9501"
000008000206,"","Koblenz Hbf",,"50.350929000000","7.588345000000",0,,0,"",""
000008000207,"","Köln Hbf",,"50.943030000000","6.958729000000",0,,0,"",""
000008000325,"","Salzgitter-Ringelheim",,"52.038158000000","10.314830000000",0,,0,"","60-60"
000008000322,"","Rottweil",,"48.165304000000","8.639295000000",0,,0,"",""
000009078914,"","Rotenburg(Wümme)",,"53.112506000000","9.390680000000",0,,0,"","340-1340"
000009074145,"","Plön",,"54.159494000000","10.422610000000",0,,0,"","5000-5001"
000009074957,"","Pönitz(Holst)",,"54.045812000000","10.671135000000",0,,0,"","5830-5831"
000009006757,"","Baltrum",,"53.721641000000","7.364208000000",0,,0,"",""
000009023280,"","Einbeck Salzderhelden",,"51.798246000000","9.922737000000",0,,0,"","Einbeck-Salzderhelden-450"
000008005265,"","Salzgitter-Bad",,"52.049824000000","10.372335000000",0,,0,"","60-60"
000009001713,"","Salzbergen Bahnhof",,"52.322970000000","7.350229000000",0,,0,"","949-7949"
000008005269,"","Immendorf(Salzgitter)",,"52.150101000000","10.441891000000",0,,0,"","60-60"
000009054758,"","Leitstade",,"53.169143000000","10.912783000000",0,,0,"","HVV-HVV"
000009020656,"","Dissen-Bad Rothenfelde",,"52.111914000000","8.185227000000",0,,0,"","419-7419"
000008000812,"","Barsinghausen",,"52.304890000000","9.467112000000",0,,0,"","3-3"
000009007202,"","Barrien(Syke)",,"52.947042000000","8.818602000000",0,,0,"","510-1510"
000008003155,"","Venlo [Grenze]",,"51.340892000000","6.192712000000",0,,0,"",""
000008011113,"","Berlin Südkreuz",,"52.475047000000","13.365319000000",0,,0,"",""
000008011111,"","Barleben",,"52.208945000000","11.620875000000",0,,0,"",""
000008001515,"","Dortmund-Scharnhorst",,"51.538373000000","7.536564000000",0,,0,"",""
000009004302,"","Bad Bevensen",,"53.078247000000","10.574141000000",0,,0,"","107-107"
000009042765,"","Hodenhagen",,"52.765983000000","9.595373000000",0,,0,"","39-39"
000008013180,"","Vahldorf",,"52.252389000000","11.499764000000",0,,0,"",""
000008011849,"","Heilbad Heiligenstadt",,"51.377067000000","10.123845000000",0,,0,"","Heiligenstadt-800"
000009090920,"","Timmendorfer Strand",,"53.994233000000","10.762349000000",0,,0,"","5810-5812"
000008005870,"","Hamburg-Tiefstack",,"53.531225000000","10.065591000000",0,,0,"","106-26"
000009101780,"","Wremen",,"53.646987000000","8.521275000000",0,,0,"","255-1255"
000008000553,"","Altmorschen",,"51.067275000000","9.610756000000",0,,0,"",""
000008010158,"","Haldensleben",,"52.285034000000","11.406106000000",0,,0,"",""
000008010159,"","Halle(Saale) Hbf",,"51.477509000000","11.987085000000",0,,0,"",""
000008006336,"","Wennigsen(Deister)",,"52.279628000000","9.572167000000",0,,0,"","104-104"
000008006330,"","Wendisch Evern",,"53.217641000000","10.462781000000",0,,0,"","HVV-HVV"
000008006339,"","Werdohl",,"51.259485000000","7.757544000000",0,,0,"",""
000009063458,"","Mühlen(Oldb)",,"52.619224000000","8.208439000000",0,,0,"","Mühlen(Oldb)-MUE"
000009067639,"","Nienburg(Weser)",,"52.645342000000","9.217862000000",0,,0,"","1-1"
000009003665,"","Rheine Bahnhof",,"52.276278000000","7.435137000000",0,,0,"","NRW-NRW"
000008000315,"","Rheda-Wiedenbrück",,"51.857023000000","8.286650000000",0,,0,"",""
000009076697,"","Rendsburg",,"54.302098000000","9.671307000000",0,,0,"","3000-3001"
000009095866,"","Wangerooge Schiffsanleger",,"53.773778000000","7.866469000000",0,,0,"",""
000009085905,"","Spiekeroog",,"53.763422000000","7.693891000000",0,,0,"",""
000009012210,"","Borkum(Nordseebad)",,"53.587439000000","6.662751000000",0,,0,"",""
000009053468,"","Langeoog",,"53.724177000000","7.494457000000",0,,0,"",""
000009068095,"","Norderney Fähranleger",,"53.698325000000","7.163201000000",0,,0,"",""
000009047215,"","Juist",,"53.672131000000","6.995762000000",0,,0,"",""
000008098553,"","Hamburg-Altona",,"53.551855000000","9.934554000000",0,,0,"","101-13"
000009067927,"","Norddeich(Norden) Mole",,"53.624320000000","7.158739000000",0,,0,"","500-500"
000008000036,"","Bielefeld Hbf",,"52.029261000000","8.532722000000",0,,0,"","KNT-KNT"
000008000032,"","Schweinfurt Hbf",,"50.035313000000","10.212919000000",0,,0,"",""
000008004952,"","Ratzeburg",,"53.698215000000","10.740633000000",0,,0,"","906-456"
000009079996,"","Sagehorn",,"53.082544000000","9.010179000000",0,,0,"","310-1310"
000008013217,"","Wallhausen(Helme)",,"51.461883000000","11.204237000000",0,,0,"","PH-PH"
000008001741,"","Völksen/Eldagsen",,"52.211875000000","9.626528000000",0,,0,"","3-3"
000008003617,"","Leiferde(Kr Gifhorn)",,"52.456453000000","10.427937000000",0,,0,"","17-17"
000008013336,"","Wolferode",,"51.512244000000","11.508752000000",0,,0,"",""
000008013333,"","Woffleben",,"51.555520000000","10.722213000000",0,,0,"","PH-PH"
000009007148,"","Barnstorf(Kr Diepholz)",,"52.706762000000","8.509406000000",0,,0,"","550-1550"
000008000804,"","Bargteheide",,"53.728200000000","10.269104000000",0,,0,"","605-163"
000008000805,"","Hamburg-Barmbek",,"53.587458000000","10.044164000000",0,,0,"","105-20"
000009067948,"","Norden(Ostfriesl)",,"53.588011000000","7.219321000000",0,,0,"","500-500"
000008000801,"","Bardowick",,"53.290469000000","10.371994000000",0,,0,"","HVV-HVV"
000009086936,"","Stederdorf(Wrestedt)",,"52.907428000000","10.592702000000",0,,0,"","2007-2007"
000008000808,"","Barnten",,"52.195374000000","9.814975000000",0,,0,"","1150-1150"
000009056546,"","Lohne(Oldb)",,"52.665327000000","8.229254000000",0,,0,"","Lohne(Oldb)-LOH"
000008005016,"","Reinbek",,"53.508395000000","10.253335000000",0,,0,"","506-92"
000009020977,"","Dorfmark",,"52.898652000000","9.770762000000",0,,0,"","24-24"
000008005019,"","Reinfeld(Holst)",,"53.830430000000","10.494537000000",0,,0,"","805-389"
000008005137,"","Rötgesbüttel",,"52.416173000000","10.524320000000",0,,0,"","16-16"
000008011957,"","Jena West",,"50.923286000000","11.577848000000",0,,0,"",""
000009099737,"","Wilhelmshaven Hbf",,"53.518825000000","8.114554000000",0,,0,"","110-110"
000009049817,"","Kirchweyhe(Weyhe)",,"52.983786000000","8.847203000000",0,,0,"","510-1510"
000008006449,"","Willebadessen",,"51.621757000000","9.011652000000",0,,0,"",""
000008079097,"","Hannover-Ledeburg",,"52.408787000000","9.691117000000",0,,0,"","1-1"
000008079095,"","Hannover-Nordstadt",,"52.393845000000","9.717763000000",0,,0,"","1-1"
000008006561,"","Woltwiesche",,"52.200754000000","10.278999000000",0,,0,"","53-53"
000008005901,"","Triangel",,"52.509506000000","10.578240000000",0,,0,"","15-15"
000008006206,"","Warendorf",,"51.950091000000","7.984464000000",0,,0,"",""
000009015055,"","Brockhöfe",,"53.002138000000","10.258539000000",0,,0,"","127-127"
000008001183,"","Ostbevern",,"52.070117000000","7.809287000000",0,,0,"","KNT-KNT"
000008012378,"","Möringen(Altm)",,"52.581661000000","11.748849000000",0,,0,"",""
000008001188,"","Lengede-Broistedt",,"52.197022000000","10.320695000000",0,,0,"","53-53"
000008004057,"","Mölln(Lauenb)",,"53.624414000000","10.683209000000",0,,0,"","816-424"
000009032907,"","Großenkneten",,"52.945089000000","8.241288000000",0,,0,"","930-1930"
000008006323,"","Welver",,"51.616253000000","7.956653000000",0,,0,"",""
000008001833,"","Ergenzingen",,"48.489534000000","8.809857000000",0,,0,"",""
000008000263,"","Münster(Westf) Hbf",,"51.956566000000","7.635715000000",0,,0,"","NRW-NRW"
000008004173,"","Münster(Westf) Zentrum Nord",,"51.984320000000","7.638470000000",0,,0,"","NRW-NRW"
000008002537,"","Halen",,"52.339122000000","7.945044000000",0,,0,"","NRW-NRW"
000008000268,"","Wunstorf",,"52.420720000000","9.458069000000",0,,0,"","3-3"
000008002539,"","Halle(Westf)",,"52.057295000000","8.357729000000",0,,0,"","KNT-KNT"
000009075000,"","Quakenbrück",,"52.673092000000","7.947870000000",0,,0,"","695-7695"
000008010297,"","Riesa",,"51.309654000000","13.287734000000",0,,0,"",""
000008000697,"","Bad Driburg(Westf)",,"51.730323000000","9.030810000000",0,,0,"",""
000008010299,"","Röblingen am See",,"51.462603000000","11.668535000000",0,,0,"",""
000008000026,"","Basel Bad Bf",,"47.567288000000","7.607805000000",0,,0,"",""
000008000022,"","Bad Nenndorf",,"52.343735000000","9.378603000000",0,,0,"","3-3"
000008000023,"","Bad Oldesloe",,"53.805353000000","10.382580000000",0,,0,"","705-255"
000008000020,"","Bad Hersfeld",,"50.869632000000","9.716182000000",0,,0,"",""
000008098549,"","Hamburg Hbf (S-Bahn)",,"53.552809000000","10.007921000000",0,,0,"","100-1"
000009075802,"","Rastede",,"53.244434000000","8.191109000000",0,,0,"","910-1910"
000008000029,"","Bebra",,"50.969568000000","9.797788000000",0,,0,"",""
000009081683,"","Schleswig",,"54.499516000000","9.538149000000",0,,0,"","1500-1501"
000008000872,"","Bennigsen",,"52.240733000000","9.666376000000",0,,0,"","3-3"
000009057306,"","Lödingsen",,"51.589196000000","9.791027000000",0,,0,"","Erbsen/Lödingsen-291"
000008000871,"","Bennemühlen",,"52.580993000000","9.726836000000",0,,0,"","3-3"
000008005369,"","Schloss Holte",,"51.908542000000","8.610576000000",0,,0,"",""
000008011172,"","Bernterode",,"51.405465000000","10.479945000000",0,,0,"",""
000008000879,"","Bad Bentheim",,"52.309897000000","7.158047000000",0,,0,"","104-104"
000008005003,"","Wehretal-Reichensachsen",,"51.154096000000","9.985977000000",0,,0,"",""
000008011178,"","Beuren(Leinefelde)",,"51.377127000000","10.279034000000",0,,0,"",""
000009008941,"","Berne",,"53.183779000000","8.475368000000",0,,0,"","820-1820"
000008011480,"","Ellrich",,"51.579804000000","10.669444000000",0,,0,"","PH-PH"
000009008989,"","Bersenbrück",,"52.551116000000","7.942580000000",0,,0,"","690-7690"
000008005791,"","Sulz(Neckar)",,"48.366485000000","8.636748000000",0,,0,"",""
000008005125,"","Röhrenfurth",,"51.154377000000","9.548372000000",0,,0,"",""
000008011946,"","Jävenitz",,"52.519664000000","11.493067000000",0,,0,"",""
000009017995,"","Cloppenburg",,"52.844319000000","8.056707000000",0,,0,"","Cloppenburg-CLP"
000008001335,"","Clarholz",,"51.898454000000","8.200835000000",0,,0,"",""
000008003286,"","Kirchhorsten",,"52.307875000000","9.119783000000",0,,0,"","5-5"
000008003288,"","Kirchlengern",,"52.196755000000","8.643778000000",0,,0,"","NRW-NRW"
000008005858,"","Thesdorf",,"53.644372000000","9.813837000000",0,,0,"","502-73"
000008006552,"","Wolfsburg Hbf",,"52.429498000000","10.787784000000",0,,0,"","20-20"
000009039154,"","Hattorf am Harz",,"51.646152000000","10.236257000000",0,,0,"","Hattorf-3120"
000009101450,"","Wolterdingen(Soltau)",,"53.026181000000","9.845728000000",0,,0,"","16-16"
000008004630,"","Oerlinghausen",,"51.978774000000","8.666016000000",0,,0,"",""
000008002405,"","Groß Düngen",,"52.097690000000","10.020480000000",0,,0,"","190-190"
000008002403,"","Großburgwedel",,"52.506820000000","9.858535000000",0,,0,"","3-3"
000008004048,"","Hamburg Mittlerer Landweg",,"53.498172000000","10.131122000000",0,,0,"","306-53"
000008012796,"","Roßla",,"51.462881000000","11.065487000000",0,,0,"","PH-PH"
000008006319,"","Hamburg-Wellingsbüttel",,"53.641327000000","10.082825000000",0,,0,"","204-51"
000008000255,"","Wolfenbüttel",,"52.159126000000","10.532306000000",0,,0,"","70-70"
000008000252,"","Minden(Westf)",,"52.290138000000","8.934728000000",0,,0,"","NRW-NRW"
000008000251,"","Witten Hbf",,"51.435544000000","7.329442000000",0,,0,"",""
000008010282,"","Prenzlau",,"53.321608000000","13.866532000000",0,,0,"",""
000009003365,"","Ascheberg(Holst)",,"54.148479000000","10.339742000000",0,,0,"","5420-5421"
000008000019,"","Bad Harzburg",,"51.888116000000","10.555444000000",0,,0,"","90-90"
000008000130,"","Goslar",,"51.911573000000","10.421436000000",0,,0,"","80-80"
000008002080,"","Frellstedt",,"52.213749000000","10.909994000000",0,,0,"","31-31"
000008005355,"","Schladen(Harz)",,"52.022364000000","10.550134000000",0,,0,"","76-76"
000008013315,"","Wingerode",,"51.389707000000","10.240509000000",0,,0,"",""
000009020359,"","Diepholz",,"52.604600000000","8.380249000000",0,,0,"","560-1560"
000008013318,"","Wipperdorf",,"51.452958000000","10.661064000000",0,,0,"",""
000008003711,"","Lispenhausen",,"50.990247000000","9.766787000000",0,,0,"",""
000009021583,"","Dreye",,"53.018395000000","8.871114000000",0,,0,"","509-1509"
000008005785,"","Hamburg-Sülldorf",,"53.581122000000","9.797519000000",0,,0,"","301-44"
000009089597,"","Süderbrarup",,"54.637372000000","9.770924000000",0,,0,"","1695-1702"
000008000908,"","Hamburg Berliner Tor",,"53.552870000000","10.024630000000",0,,0,"","100-2"
000009088937,"","Suderburg",,"52.904881000000","10.432808000000",0,,0,"","2006-2006"
000008005788,"","Suerhop",,"53.315903000000","9.855154000000",0,,0,"","HVV-HVV"
000009015245,"","Bruchmühlen",,"52.204416000000","8.449097000000",0,,0,"","360-7360"
000008011596,"","Gardelegen",,"52.518376000000","11.404536000000",0,,0,"",""
000009078185,"","Rodenkirchen(Oldb)",,"53.401290000000","8.455347000000",0,,0,"","840-1840"
000008001327,"","Castrop-Rauxel Hbf",,"51.573526000000","7.303980000000",0,,0,"",""
000008001323,"","Capelle(Westf)",,"51.735268000000","7.611080000000",0,,0,"",""
000008006541,"","Wohltorf",,"53.520589000000","10.278184000000",0,,0,"","606-179"
000008012352,"","Miesterhorst",,"52.466251000000","11.120178000000",0,,0,"",""
000008007831,"","Apensen",,"53.441667000000","9.612345000000",0,,0,"","HVV-HVV"
000008012351,"","Mieste",,"52.483750000000","11.204771000000",0,,0,"",""
000008004626,"","Oelde",,"51.829112000000","8.142599000000",0,,0,"",""
000008000244,"","Mannheim Hbf",,"49.479354000000","8.468921000000",0,,0,"",""
000008000243,"","Malsfeld",,"51.097605000000","9.534833000000",0,,0,"",""
000008000240,"","Mainz Hbf",,"50.001117000000","8.258720000000",0,,0,"",""
000008000364,"","Vienenburg",,"51.955111000000","10.561996000000",0,,0,"","81-81"
000009000035,"","List(Sylt) Fähre",,"55.015779000000","8.439799000000",0,,0,"","1010-1011"
000008013547,"","Hörschel Hp",,"51.007795000000","10.233271000000",0,,0,"",""
000008000004,"","Altenbeken",,"51.766433000000","8.943319000000",0,,0,"","KNT-KNT"
000008004589,"","Wildeck-Obersuhl",,"50.950619000000","10.026229000000",0,,0,"",""
000008013548,"","Herleshausen Hp",,"51.002642000000","10.171661000000",0,,0,"",""
000008000796,"","Banteln",,"52.066254000000","9.750249000000",0,,0,"","220-220"
000008000797,"","Bantorf",,"52.332253000000","9.417771000000",0,,0,"","3-3"
000009033817,"","Göttingen",,"51.536722000000","9.925875000000",0,,0,"","Göttingen-200"
000008011629,"","Gerstungen",,"50.964665000000","10.065041000000",0,,0,"",""
000009081336,"","Schierbrok",,"53.084604000000","8.579118000000",0,,0,"","720-1720"
000008005340,"","Schieder",,"51.922289000000","9.151630000000",0,,0,"","KNT-KNT"
000009056146,"","Linsburg Bahnhof",,"52.600786000000","9.324953000000",0,,0,"","1-1"
000009055895,"","Lindwedel",,"52.610943000000","9.689022000000",0,,0,"","4-4"
000009003452,"","Lingen Bahnhof/ZOB",,"52.519255000000","7.320804000000",0,,0,"","142-142"
000008000859,"","Malsfeld-Beiseförth",,"51.083076000000","9.553130000000",0,,0,"",""
000008013025,"","Stadtroda",,"50.868216000000","11.722792000000",0,,0,"",""
000008001558,"","Drensteinfurt",,"51.799158000000","7.733609000000",0,,0,"",""
000008000971,"","Hamburg Billwerder-Moorfleet",,"53.515589000000","10.096658000000",0,,0,"","306-39"
000008005106,"","Hamburg-Rissen",,"53.583216000000","9.757057000000",0,,0,"","401-60"
000009078056,"","Ritterhude",,"53.183595000000","8.753929000000",0,,0,"","209-1209"
000008005104,"","Rinteln",,"52.198936000000","9.077815000000",0,,0,"","Rinteln-RIN"
000008005102,"","Rinkerode",,"51.844383000000","7.689387000000",0,,0,"",""
000008001279,"","Burgdorf(Kreis Hannover)",,"52.448708000000","10.002837000000",0,,0,"","3-3"
000008001315,"","Buxtehude",,"53.470491000000","9.688314000000",0,,0,"","HVV-HVV"
000008001318,"","Calberlah",,"52.427559000000","10.624914000000",0,,0,"","16-16"
000008003382,"","Königslutter",,"52.257166000000","10.812489000000",0,,0,"","35-35"
000008003388,"","Körle",,"51.171588000000","9.513137000000",0,,0,"",""
000008002745,"","Hemmerde",,"51.553942000000","7.803364000000",0,,0,"",""
000009098668,"","Westerstede-Ocholt",,"53.202288000000","7.886531000000",0,,0,"","166-166"
000008002461,"","Gütersloh Hbf",,"51.906941000000","8.385071000000",0,,0,"",""
000008004735,"","Otze",,"52.487617000000","10.017114000000",0,,0,"","3-3"
000008002507,"","Hagen(Han)",,"52.573690000000","9.408946000000",0,,0,"","3-3"
000009034542,"","Haffkrug",,"54.054428000000","10.742970000000",0,,0,"","5815-5817"
000009026094,"","Etelsen",,"52.999194000000","9.123734000000",0,,0,"","120-1120"
000008012494,"","Niedersachswerfen",,"51.545067000000","10.763890000000",0,,0,"","PH-PH"
000008012492,"","Gernrode-Niederorschel",,"51.383224000000","10.416533000000",0,,0,"",""
000009007512,"","Bassum",,"52.847474000000","8.739990000000",0,,0,"","530-1530"
000009004766,"","Bad Gandersheim",,"51.867450000000","10.020405000000",0,,0,"","910-910"
000009004977,"","Bad Iburg Bahnhof",,"52.149311000000","8.037212000000",0,,0,"","416-7416"
000008000076,"","Soest",,"51.578419000000","8.104589000000",0,,0,"",""
000008000074,"","Dillenburg",,"50.734883000000","8.294088000000",0,,0,"",""
000008000073,"","Singen(Hohentwiel)",,"47.758438000000","8.840383000000",0,,0,"",""
000009019646,"","Delmenhorst",,"53.052782000000","8.629879000000",0,,0,"","710-1710"
000008000071,"","Derneburg",,"52.096889000000","10.143723000000",0,,0,"","200-200"
000008010385,"","Wolkramshausen",,"51.440021000000","10.745663000000",0,,0,"",""
000008004297,"","Haunetal-Neukirchen",,"50.770838000000","9.692546000000",0,,0,"",""
000008000780,"","Hamburg-Bahrenfeld",,"53.560060000000","9.910778000000",0,,0,"","101-13"
000008000115,"","Fulda",,"50.554723000000","9.683977000000",0,,0,"",""
000008013250,"","Wegenstedt",,"52.387075000000","11.208882000000",0,,0,"",""
000009000056,"","Leschede",,"52.397644000000","7.305961000000",0,,0,"","908-7908"
000008003655,"","Leopoldstal",,"51.844497000000","8.971182000000",0,,0,"",""
000008000118,"","Gelsenkirchen Hbf",,"51.504903000000","7.102455000000",0,,0,"",""
000008003659,"","Letter",,"52.393898000000","9.639480000000",0,,0,"","2-2"
000008000846,"","Beelen",,"51.929320000000","8.116159000000",0,,0,"",""
000009058098,"","Lübeck-Travemünde Hafen",,"53.958759000000","10.865587000000",0,,0,"","6007-6022"
000009029506,"","Garding",,"54.326111000000","8.778075000000",0,,0,"","1340-1441"
000008003772,"","Lübbecke(Westf)",,"52.306341000000","8.605732000000",0,,0,"",""
000009057655,"","Lübberstedt",,"53.343156000000","8.785172000000",0,,0,"","220-1220"
000009058104,"","Lübeck-Travemünde Strand",,"53.964795000000","10.875604000000",0,,0,"","6007-6023"
000009021303,"","Dorum",,"53.688841000000","8.575820000000",0,,0,"","270-1270"
000008001545,"","Dortmund-Sölde",,"51.495460000000","7.589205000000",0,,0,"",""
000008001543,"","Dortmund-Mengede",,"51.570345000000","7.374374000000",0,,0,"",""
000008003410,"","Hamburg Kornweg",,"53.632381000000","10.053841000000",0,,0,"","204-35"
000008000961,"","Dortmund-Hörde",,"51.487782000000","7.500029000000",0,,0,"",""
000008002830,"","Hildesheim Ost",,"52.146551000000","9.963169000000",0,,0,"","100-100"
000009016062,"","Burhafe(Ostfriesl)",,"53.606557000000","7.711074000000",0,,0,"","300-300"
000008001692,"","Ehringhausen(Kr Lippstadt)",,"51.662813000000","8.449260000000",0,,0,"",""
000009096819,"","Wehdel(Schiffdorf)",,"53.512364000000","8.806549000000",0,,0,"","265-1265"
000009070250,"","Oerel",,"53.494156000000","9.032470000000",0,,0,"","370-370"
000009084140,"","Sellstedt",,"53.515529000000","8.723057000000",0,,0,"","260-1260"
000008003096,"","Isselhorst-Avenwedde",,"51.939976000000","8.438524000000",0,,0,"",""
000008003091,"","Isernhagen",,"52.486091000000","9.803842000000",0,,0,"","2-2"
000009098401,"","Westerhausen(Melle)",,"52.236307000000","8.278636000000",0,,0,"","363-7363"
000008006360,"","Westbarthausen",,"52.096975000000","8.232642000000",0,,0,"","KNT-KNT"
000008006361,"","Westbevern",,"52.030984000000","7.743702000000",0,,0,"","KNT-KNT"
000008001872,"","Eschede",,"52.740784000000","10.230135000000",0,,0,"","53-53"
000008004720,"","Höxter-Ottbergen",,"51.710990000000","9.304909000000",0,,0,"","NRW-NRW"
000009072578,"","Ottersberg(b Bremen)",,"53.096847000000","9.133048000000",0,,0,"","320-1320"
000008002575,"","Handeloh",,"53.241693000000","9.844711000000",0,,0,"","HVV-HVV"
000008006001,"","Unterlüß",,"52.834315000000","10.299906000000",0,,0,"","67-67"
000008001910,"","Essen-Kray Nord",,"51.469430000000","7.080476000000",0,,0,"",""
000008000344,"","Wittingen",,"52.727291000000","10.723174000000",0,,0,"","13-13"
000008000342,"","Weetzen",,"52.298351000000","9.635376000000",0,,0,"","2-2"
000008003986,"","Mersch(Westf)",,"51.762112000000","7.737412000000",0,,0,"",""
000008000064,"","Celle",,"52.620963000000","10.062634000000",0,,0,"","1-1"
000008000068,"","Darmstadt Hbf",,"49.872503000000","8.629636000000",0,,0,"",""
000008000107,"","Freiburg(Brsg) Hbf",,"47.997697000000","7.841170000000",0,,0,"",""
000008000105,"","Frankfurt(Main) Hbf",,"50.107145000000","8.663789000000",0,,0,"",""
000008000102,"","Finnentrop",,"51.173048000000","7.964563000000",0,,0,"",""
000009027253,"","Flensburg",,"54.774049000000","9.436687000000",0,,0,"","2000-2001"
000008000101,"","Eutingen im Gäu",,"48.479952000000","8.782236000000",0,,0,"",""
000008010097,"","Eisenach",,"50.976922000000","10.331986000000",0,,0,"",""
000008011602,"","Gebra(Hainleite)",,"51.427155000000","10.595388000000",0,,0,"",""
000008010093,"","Eberswalde Hbf",,"52.834021000000","13.797062000000",0,,0,"",""
000008003640,"","Lengerich(Westf)",,"52.175785000000","7.878459000000",0,,0,"","KNT-KNT"
000008010099,"","Elsterwerda",,"51.459677000000","13.516428000000",0,,0,"",""
000009056855,"","Loxstedt",,"53.474779000000","8.654205000000",0,,0,"","240-1240"
000008005635,"","Münster-Sprakel",,"52.041513000000","7.619982000000",0,,0,"","NRW-NRW"
000008005047,"","Rethen(Leine)",,"52.285807000000","9.819496000000",0,,0,"","2-2"
000008013004,"","Sollstedt",,"51.413673000000","10.529848000000",0,,0,"",""
000008013005,"","Solpke",,"52.500416000000","11.294178000000",0,,0,"",""
000008005638,"","Springe",,"52.215150000000","9.556238000000",0,,0,"","3-3"
000008000957,"","Bieren-Rödinghausen",,"52.239275000000","8.516964000000",0,,0,"",""
000009010019,"","Bienenbüttel",,"53.142090000000","10.484754000000",0,,0,"","2001-2001"
000008000953,"","Bielefeld Ost",,"52.024013000000","8.559416000000",0,,0,"",""
000008003400,"","Konstanz",,"47.658754000000","9.177312000000",0,,0,"",""
000008002824,"","Hiddenhausen-Schweicheln",,"52.158440000000","8.668239000000",0,,0,"","NRW-NRW"
000008005160,"","Ronnenberg",,"52.323073000000","9.651786000000",0,,0,"","2-2"
000008005161,"","Ronshausen",,"50.946016000000","9.854425000000",0,,0,"",""
000008003522,"","Langelsheim",,"51.930120000000","10.343173000000",0,,0,"","85-85"
000008001258,"","Büsenbachtal",,"53.269595000000","9.858592000000",0,,0,"","HVV-HVV"
000009018980,"","Dannenberg(Elbe) Ost",,"53.104932000000","11.117713000000",0,,0,"","Dannenberg-DBG"
000008001686,"","Ehlenbruch",,"51.981270000000","8.741243000000",0,,0,"",""
000008001687,"","Ehlershausen",,"52.523609000000","10.029596000000",0,,0,"","3-3"
000009085458,"","Soltau Nord",,"53.000974000000","9.860970000000",0,,0,"","20-20"
000009040581,"","Heinschenwalde",,"53.498699000000","8.972924000000",0,,0,"","370-370"
000009028359,"","Frelsdorf",,"53.501305000000","8.901283000000",0,,0,"","230-1230"
000009029720,"","Geestenseth",,"53.506617000000","8.858876000000",0,,0,"","230-1230"
000009014519,"","Bremervörde",,"53.483184000000","9.139755000000",0,,0,"","380-380"
000008001134,"","Braunschweig-Gliesmarode",,"52.275600000000","10.551695000000",0,,0,"","40-40"
000009041857,"","Hesedorf(Bremervörde)",,"53.472714000000","9.194986000000",0,,0,"","380-380"
000008003088,"","Hamburg-Iserbrook",,"53.576606000000","9.814049000000",0,,0,"","301-43"
000008010404,"","Berlin-Spandau",,"52.534648000000","13.196898000000",0,,0,"",""
000008010405,"","Berlin Wannsee",,"52.420972000000","13.179528000000",0,,0,"",""
000008001867,"","Ibbenbüren-Esch",,"52.299746000000","7.655968000000",0,,0,"","NRW-NRW"
000008006358,"","Wesseln(Nds.)",,"52.081105000000","10.034244000000",0,,0,"","190-190"
000008004719,"","Hamburg-Othmarschen",,"53.559233000000","9.885967000000",0,,0,"","201-16"
000009093627,"","Verden(Aller)",,"52.920863000000","9.237906000000",0,,0,"","130-1130"
000008002561,"","Hamburg-Wilhelmsburg",,"53.498936000000","10.007006000000",0,,0,"","108-40"
000008001900,"","Essen-Altenessen",,"51.484370000000","7.007252000000",0,,0,"",""
000008006078,"","Vernawahlshausen",,"51.629529000000","9.614442000000",0,,0,"","VSN-VSN"
000008006116,"","Vorhop",,"52.648040000000","10.656384000000",0,,0,"","13-13"
000009094547,"","Volpriehausen",,"51.660967000000","9.737822000000",0,,0,"","VSN-VSN"
000008002203,"","Geeste",,"52.598467000000","7.312313000000",0,,0,"","Geeste-GEE"
000008000056,"","Buchholz(Nordheide)",,"53.324683000000","9.876266000000",0,,0,"","HVV-HVV"
000008000055,"","Bruchsal",,"49.124622000000","8.589649000000",0,,0,"",""
000009013927,"","Bremen Hbf",,"53.083456000000","8.813719000000",0,,0,"","100-1100"
000009014418,"","Bremerhaven Hbf",,"53.534832000000","8.599605000000",0,,0,"","250-1250"
000008000058,"","Büchen",,"53.474972000000","10.623298000000",0,,0,"","726-320"
000009031239,"","Goldenstedt(Oldb)",,"52.800579000000","8.394434000000",0,,0,"","Goldenstedt(Oldb)-GOL"
000008000059,"","Bünde(Westf)",,"52.202075000000","8.573876000000",0,,0,"","NRW-NRW"
000008000177,"","Horb",,"48.441471000000","8.688982000000",0,,0,"",""
000008000171,"","Unna",,"51.538982000000","7.692858000000",0,,0,"",""
000008010085,"","Dresden Hbf",,"51.040563000000","13.732035000000",0,,0,"",""
000008010080,"","Döbeln Hbf",,"51.126568000000","13.094988000000",0,,0,"",""
000008000483,"","Alfeld(Leine)",,"51.981210000000","9.818271000000",0,,0,"","260-260"
000008000488,"","Algermissen",,"52.252335000000","9.966595000000",0,,0,"","120-120"
000008000489,"","Aligse",,"52.403462000000","9.979349000000",0,,0,"","101-101"
000008011714,"","Groß Ammensleben",,"52.235646000000","11.525417000000",0,,0,"",""
000009085676,"","Speele",,"51.377396000000","9.563668000000",0,,0,"","Staufenberg-Speele-3311"
000008002812,"","Hessisch-Oldendorf",,"52.166540000000","9.243935000000",0,,0,"","6-6"
000008002810,"","Hesseln(Halle/Westf)",,"52.068397000000","8.311956000000",0,,0,"","KNT-KNT"
000008003478,"","Kupfermühle",,"53.762193000000","10.326469000000",0,,0,"","605-258"
000008001245,"","Bückeburg",,"52.267716000000","9.047551000000",0,,0,"","5-5"
000008002933,"","Hofgeismar",,"51.499186000000","9.395461000000",0,,0,"",""
000008003518,"","Hamburg Landungsbrücken",,"53.546132000000","9.971281000000",0,,0,"","100-6"
000008003519,"","Hamburg Landwehr",,"53.561199000000","10.038021000000",0,,0,"","105-7"
000008004883,"","Lünen-Preußen",,"51.588150000000","7.539692000000",0,,0,"",""
000008001360,"","Dahlenburg",,"53.169343000000","10.708883000000",0,,0,"","HVV-HVV"
000009089501,"","Sörup",,"54.716591000000","9.669982000000",0,,0,"","1580-1582"
000008001007,"","Hamburg-Blankenese",,"53.564364000000","9.814607000000",0,,0,"","301-41"
000008001000,"","Bissendorf(Wedemark)",,"52.522705000000","9.748191000000",0,,0,"","3-3"
000008001790,"","Engen(Hegau)",,"47.856347000000","8.772786000000",0,,0,"",""
000009012827,"","Bramsche(Hase)",,"52.410845000000","7.974894000000",0,,0,"","640-7640"
000009012880,"","Bramstedt(b Syke)",,"52.871478000000","8.785679000000",0,,0,"","530-1530"
000009012657,"","Brake(Unterweser)",,"53.328731000000","8.481235000000",0,,0,"","830-1830"
000008001121,"","Brakel(Höxter)",,"51.712165000000","9.183200000000",0,,0,"",""
000008004665,"","Oker",,"51.904879000000","10.478146000000",0,,0,"","80-80"
000008004661,"","Hamburg-Ohlsdorf",,"53.620873000000","10.031968000000",0,,0,"","105-36"
000009071069,"","Oldenbüttel",,"53.284416000000","8.810493000000",0,,0,"","220-1220"
000008006342,"","Werl",,"51.558073000000","7.914136000000",0,,0,"",""
000009072199,"","Osterode am Harz Mitte",,"51.726038000000","10.245443000000",0,,0,"","Osterode-3100"
000009072193,"","Osterode am Harz Leege",,"51.717059000000","10.273027000000",0,,0,"","Osterode-3100"
000008006348,"","Werne a d Lippe",,"51.669250000000","7.622934000000",0,,0,"",""
000008003199,"","Kassel-Oberzwehren",,"51.276348000000","9.454028000000",0,,0,"",""
000008004709,"","Osterwald(Salzhemmendorf)",,"52.097283000000","9.636514000000",0,,0,"","5-5"
000008002557,"","Hamburg-Neugraben",,"53.474143000000","9.852048000000",0,,0,"","9900-58"
000008002554,"","Hamburg-Bergedorf",,"53.489832000000","10.206171000000",0,,0,"","506-89"
000008002555,"","Hamburg-Eidelstedt",,"53.595887000000","9.907097000000",0,,0,"","202-28"
000008006062,"","Hamburg-Veddel",,"53.521703000000","10.013313000000",0,,0,"","108-27"
000008002553,"","Hamburg-Altona",,"53.552695000000","9.935175000000",0,,0,"","101-13"
000008002550,"","Hamburg Holstenstraße",,"53.561762000000","9.949741000000",0,,0,"","101-14"
000008006060,"","Vechelde",,"52.257714000000","10.359146000000",0,,0,"","53-53"
000009093151,"","Vechta",,"52.729029000000","8.280491000000",0,,0,"","Vechta-VEC"
000008002558,"","Hamburg-Rahlstedt",,"53.604857000000","10.154396000000",0,,0,"","305-52"
000008002559,"","Hamburg-Stellingen (Arenen)",,"53.589843000000","9.918336000000",0,,0,"","101-17"
000008002274,"","Gifhorn Stadt",,"52.479774000000","10.542940000000",0,,0,"","10-10"
000008006104,"","Voldagsen(Coppenbrügge)",,"52.101535000000","9.582741000000",0,,0,"","6-6"
000008000046,"","Siegen",,"50.875939000000","8.016508000000",0,,0,"",""
000008000044,"","Bonn Hbf",,"50.732008000000","7.097136000000",0,,0,"",""
000008000043,"","Seesen",,"51.887263000000","10.173898000000",0,,0,"","84-84"
000008000048,"","Brackwede",,"51.997378000000","8.498426000000",0,,0,"","KNT-KNT"
000008000049,"","Braunschweig Hbf",,"52.252218000000","10.540295000000",0,,0,"","40-40"
000009041699,"","Herzberg am Harz",,"51.643886000000","10.329837000000",0,,0,"","Herzberg-3130"
000009041892,"","Hesepe",,"52.439544000000","7.967460000000",0,,0,"","641-7641"
000008000164,"","Herne",,"51.543652000000","7.217830000000",0,,0,"",""
000008000162,"","Herford",,"52.119609000000","8.663643000000",0,,0,"","NRW-NRW"
000008000163,"","Tuttlingen",,"47.980579000000","8.798542000000",0,,0,"",""
000009092160,"","Uelzen",,"52.969791000000","10.553017000000",0,,0,"","2005-2005"
000008000169,"","Hildesheim Hbf",,"52.160626000000","9.953497000000",0,,0,"","100-100"
000008010193,"","Königs Wusterhausen",,"52.296635000000","13.631472000000",0,,0,"",""
000008005616,"","Spaichingen",,"48.068987000000","8.740147000000",0,,0,"",""
000009085578,"","Sottrum(Kr Rotenburg)",,"53.101279000000","9.250181000000",0,,0,"","330-330"
000008005610,"","Sontra",,"51.072153000000","9.930934000000",0,,0,"",""
000008003460,"","Halstenbek Krupunder",,"53.615823000000","9.867762000000",0,,0,"","302-46"
000009041718,"","Herzberg am Harz Schloss",,"51.654474000000","10.332832000000",0,,0,"","Herzberg-3130"
000008002801,"","Herzebrock",,"51.880225000000","8.236268000000",0,,0,"",""
000008003469,"","Künsebeck",,"52.036703000000","8.384340000000",0,,0,"","KNT-KNT"
000008002923,"","Höxter Rathaus",,"51.772604000000","9.381918000000",0,,0,"","Höxter-700"
000008002920,"","Hövelhof",,"51.823991000000","8.661685000000",0,,0,"",""
000008002921,"","Hövelriege",,"51.865123000000","8.642067000000",0,,0,"",""
000009018450,"","Cuxhaven",,"53.860667000000","8.703886000000",0,,0,"","1-1"
000009011213,"","Bohmte",,"52.361602000000","8.307526000000",0,,0,"","228-7228"
000008001782,"","Emsdetten",,"52.176750000000","7.531528000000",0,,0,"","NRW-NRW"
000008005292,"","Sarstedt (Zug)",,"52.232600000000","9.842592000000",0,,0,"","1100-1100"
000008001781,"","Empelde(Bahn)",,"52.340157000000","9.668982000000",0,,0,"","1-1"
000009092881,"","Uslar-Offensen",,"51.588886000000","9.679817000000",0,,0,"","Offensen-436"
000008001118,"","Brake(b Bielefeld)",,"52.069653000000","8.604914000000",0,,0,"","KNT-KNT"
000008003182,"","Bad Karlshafen",,"51.646270000000","9.445710000000",0,,0,"","Bad Karlshafen-630"
000009093050,"","Varel",,"53.399068000000","8.150148000000",0,,0,"","211-211"
000008002545,"","Halstenbek",,"53.630377000000","9.839092000000",0,,0,"","302-45"
000008004415,"","Vellmar-Niedervellmar",,"51.351851000000","9.478438000000",0,,0,"",""
000008002548,"","Hamburg Dammtor (Messe/CCH)",,"53.560751000000","9.989566000000",0,,0,"","100-3"
000008006058,"","Vastorf",,"53.199049000000","10.555558000000",0,,0,"","HVV-HVV"
000008002549,"","Hamburg Hbf",,"53.552736000000","10.006909000000",0,,0,"","100-1"
000009030495,"","Gettorf",,"54.409818000000","9.978899000000",0,,0,"","3340-3341"
000008010226,"","Magdeburg-Neustadt",,"52.148843000000","11.641703000000",0,,0,"",""
000008010224,"","Magdeburg Hbf",,"52.130349000000","11.626891000000",0,,0,"",""
000008002262,"","Geseke",,"51.645230000000","8.510292000000",0,,0,"",""
000009095568,"","Walkenried",,"51.584827000000","10.608951000000",0,,0,"","VSN-VSN"
000008010222,"","Lutherstadt Wittenberg Hbf",,"51.867811000000","12.662285000000",0,,0,"",""
000008010220,"","Lübbenau(Spreewald)",,"51.862169000000","13.960900000000",0,,0,"",""
000008000627,"","Ashausen",,"53.368693000000","10.145564000000",0,,0,"","9900-497"
000008000624,"","Aschendorf",,"53.052179000000","7.337153000000",0,,0,"","Papenburg-PAP"
000008000623,"","Ascheberg(Westf)",,"51.782991000000","7.600749000000",0,,0,"",""
000008006484,"","Winsen(Luhe)",,"53.353839000000","10.207691000000",0,,0,"","HVV-HVV"
000008006482,"","Winninghausen",,"52.323325000000","9.436305000000",0,,0,"","3-3"
000008002304,"","Göhrde",,"53.167749000000","10.851118000000",0,,0,"","HVV-HVV"
000009100494,"","Wintermoor (Zug)",,"53.186138000000","9.828536000000",0,,0,"","2-2"
000008000156,"","Heidelberg Hbf",,"49.403567000000","8.675442000000",0,,0,"",""
000009039918,"","Heidkrug",,"53.057061000000","8.679839000000",0,,0,"","709-1709"
000009082392,"","Schortens-Heidmühle",,"53.542211000000","7.946291000000",0,,0,"","202-202"
000008000152,"","Hannover Hbf",,"52.377373000000","9.741991000000",0,,0,"","1-1"
000008000150,"","Hanau Hbf",,"50.120953000000","8.929000000000",0,,0,"",""
000008000151,"","Bad Bentheim [Grenze]",,"52.309101000000","7.040160000000",0,,0,"","NL-NL"
000008011657,"","Görsbach",,"51.455733000000","10.941792000000",0,,0,"","PH-PH"
000008000159,"","Helmstedt",,"52.222086000000","11.010553000000",0,,0,"","30-30"
000008010184,"","Chemnitz Hbf",,"50.839696000000","12.930877000000",0,,0,"",""
000009053589,"","Langwedel(Kr Verden)",,"52.977853000000","9.195231000000",0,,0,"","120-1120"
000008002873,"","Hamburg Hochkamp",,"53.561370000000","9.842076000000",0,,0,"","201-42"
000009017280,"","Büsum (Hafen)",,"54.124600000000","8.860816000000",0,,0,"","2570-2571"
000009053790,"","Lauenbrück",,"53.197010000000","9.563755000000",0,,0,"","360-360"
000008003577,"","Lauenburg(Elbe)",,"53.369555000000","10.567586000000",0,,0,"","616-198"
000008002916,"","Hörstmar(Lippe)",,"52.012502000000","8.844978000000",0,,0,"",""
000008002915,"","Hörstel",,"52.295686000000","7.591557000000",0,,0,"","NRW-NRW"
000009053845,"","Lauenförde-Beverungen",,"51.658568000000","9.392742000000",0,,0,"","Lauenförde-3573"
000008001342,"","Coppenbrügge",,"52.119454000000","9.537180000000",0,,0,"","6-6"
000008003212,"","Kattenvenne",,"52.113273000000","7.860281000000",0,,0,"","KNT-KNT"
000008001063,"","Börßum",,"52.060463000000","10.568935000000",0,,0,"","75-75"
000008001061,"","Bönen",,"51.598015000000","7.757296000000",0,,0,"",""
000009080469,"","Sandkrug",,"53.054968000000","8.254901000000",0,,0,"","920-1920"
000009080383,"","Sande(Kr Friesland)",,"53.490267000000","8.031507000000",0,,0,"","203-203"
000008005283,"","Sandebeck",,"51.818371000000","8.986954000000",0,,0,"",""
000008001106,"","Wildeck-Bosserode",,"50.945697000000","9.993002000000",0,,0,"",""
000009080501,"","Sandwehle",,"54.325749000000","8.758482000000",0,,0,"","1340-1445"
000008001492,"","Dollbergen",,"52.417153000000","10.181657000000",0,,0,"","3-3"
000008001493,"","Dollern",,"53.545425000000","9.558080000000",0,,0,"","HVV-HVV"
000008004760,"","Peine",,"52.318942000000","10.232145000000",0,,0,"","4-4"
000009092865,"","Uslar",,"51.654448000000","9.655143000000",0,,0,"","Uslar-430"
000008001957,"","Fallersleben",,"52.423496000000","10.717325000000",0,,0,"","20-20"
000009004693,"","Bad Fallingbostel",,"52.862770000000","9.699813000000",0,,0,"","28-28"
000008010217,"","Lübben(Spreewald)",,"51.939737000000","13.877182000000",0,,0,"",""
000009005261,"","Bad Malente-Gremsmühlen Bahnhof",,"54.166912000000","10.551750000000",0,,0,"","5665-5666"
000008002259,"","Gertenbach",,"51.380066000000","9.804113000000",0,,0,"","VSN-VSN"
000008010334,"","Stendal",,"52.594723000000","11.854412000000",0,,0,"",""
000008002370,"","Lennestadt-Grevenbrück",,"51.141781000000","8.017977000000",0,,0,"",""
000008000735,"","Bad Pyrmont",,"51.974233000000","9.272719000000",0,,0,"","6-6"
000008000732,"","Bad Oeynhausen",,"52.205398000000","8.796523000000",0,,0,"","NRW-NRW"
000008000147,"","Hamburg-Harburg",,"53.455908000000","9.991701000000",0,,0,"","9900-56"
000009101879,"","Wulften(Harz)",,"51.659421000000","10.175796000000",0,,0,"","VSN-VSN"
000008000140,"","Guntershausen",,"51.229917000000","9.466997000000",0,,0,"",""
000008002680,"","Hamm-Heessen",,"51.709195000000","7.831551000000",0,,0,"",""
000009005811,"","Bad Sachsa",,"51.581912000000","10.573120000000",0,,0,"","Bad Sachsa-3150"
000008012289,"","Magdeburg-Eichenweiler",,"52.166448000000","11.657982000000",0,,0,"",""
000008000148,"","Hameln",,"52.101845000000","9.375823000000",0,,0,"","6-6"
000008000149,"","Hamm(Westf)",,"51.678078000000","7.807821000000",0,,0,"",""
000008000297,"","Paderborn Hbf",,"51.712979000000","8.740505000000",0,,0,"","KNT-KNT"
000008005717,"","Stelle(Kr Harburg)",,"53.387699000000","10.109023000000",0,,0,"","9900-495"
000009071612,"","Osnabrück Hbf",,"52.273129000000","8.060825000000",0,,0,"","100-7100"
000008002864,"","Hittfeld",,"53.403712000000","9.974525000000",0,,0,"","9900-94"
000009042663,"","Hitzacker(Elbe)",,"53.139204000000","11.038413000000",0,,0,"","HVV-HVV"
000008000290,"","Offenburg",,"48.476475000000","7.946723000000",0,,0,"",""
000009090291,"","Oldenburg(Oldb) Hbf",,"53.143813000000","8.222958000000",0,,0,"","740-1740"
000008003563,"","Lathen",,"52.860749000000","7.322574000000",0,,0,"","Lathen-LAT"
000008005436,"","Schüttorf",,"52.316840000000","7.220610000000",0,,0,"","105-105"
000008002903,"","Wildeck-Hönebach",,"50.935432000000","9.944241000000",0,,0,"",""
000009048515,"","Katharinenheerd(DB)",,"54.334163000000","8.830489000000",0,,0,"","1340-1444"
000008003200,"","Kassel-Wilhelmshöhe",,"51.313114000000","9.446898000000",0,,0,"",""
000009073279,"","Pellworm",,"54.501691000000","8.700497000000",0,,0,"","1390-1391"
000009048530,"","Kating",,"54.326030000000","8.872281000000",0,,0,"","1320-1321"
000009048531,"","Katlenburg",,"51.686024000000","10.099953000000",0,,0,"","Katlenburg-3380"
000008001055,"","Böblingen",,"48.687758000000","9.004128000000",0,,0,"",""
000009004339,"","Bad Bodenteich",,"52.835204000000","10.672757000000",0,,0,"","2010-2010"
000009011118,"","Bodenfelde",,"51.637296000000","9.561612000000",0,,0,"","Bodenfelde-440"
000009050380,"","Kleinensiel",,"53.444294000000","8.476119000000",0,,0,"","840-1840"
000008007844,"","Kutenholz",,"53.470379000000","9.309961000000",0,,0,"","HVV-HVV"
000008007845,"","Ruschwedel",,"53.446216000000","9.560046000000",0,,0,"","HVV-HVV"
000008007843,"","Harsefeld",,"53.450062000000","9.498657000000",0,,0,"","HVV-HVV"
000008007840,"","Bargstedt",,"53.457544000000","9.446276000000",0,,0,"","HVV-HVV"
000008007841,"","Brest-Aspe",,"53.460564000000","9.382714000000",0,,0,"","HVV-HVV"
000009006906,"","Bardenfleth(Elsfleth) Raiba",,"53.228783000000","8.373373000000",0,,0,"","830-1830"
000009069917,"","Oberströmische Seite Culturweg",,"53.283876000000","8.292473000000",0,,0,"","835-1835"
000009065189,"","Neu-Wiegboldsbur Bauackersweg",,"53.449759000000","7.355625000000",0,,0,"","551-551"
000009065191,"","Neu-Wiegboldsbur Schafhöchter Weg",,"53.458143000000","7.372007000000",0,,0,"","551-551"
000009092909,"","Uthwerdum Abzw. Theene",,"53.475467000000","7.341535000000",0,,0,"","550-550"
000009022842,"","Edewecht Altersheim",,"53.139864000000","7.990333000000",0,,0,"","755-1755"
000009022856,"","Edewecht Polizei",,"53.133688000000","7.986694000000",0,,0,"","755-1755"
000009073559,"","Pewsum Gewerbegebiet",,"53.427704000000","7.107592000000",0,,0,"","570-570"
000009003064,"","Apen Streichenstraße",,"53.223149000000","7.810110000000",0,,0,"","770-1770"
000009032763,"","Groß-Heikeland",,"53.449662000000","7.269653000000",0,,0,"","587-587"
000009099159,"","Wiefelstede Am Schützenplatz",,"53.249757000000","8.108386000000",0,,0,"","745-1745"
000009014230,"","Bremen Tenever",,"53.057509000000","8.962761000000",0,,0,"","100-1100"
000009008992,"","Bersenbrück Bahner Straße",,"52.546804000000","7.942314000000",0,,0,"","690-7690"
000009072754,"","Oyten Kastendiek",,"53.058851000000","8.974968000000",0,,0,"","309-1309"
000009008993,"","Bersenbrück Bahnhof",,"52.551688000000","7.942705000000",0,,0,"","690-7690"
000009052841,"","Lahausen Freesendamm",,"52.974127000000","8.849309000000",0,,0,"","510-1510"
000009002986,"","Ankum Neuer Markt",,"52.541098000000","7.867813000000",0,,0,"","688-7688"
000009002988,"","Ankum Schulzentrum",,"52.545150000000","7.884128000000",0,,0,"","688-7688"
000009002980,"","Ankum Bahnhof",,"52.542096000000","7.878051000000",0,,0,"","688-7688"
000009009002,"","Bersenbrück-Ahausen Ort",,"52.556155000000","7.915234000000",0,,0,"","690-7690"
000009065420,"","Neuenfelde(Elsfleth) Watkenstraße 13",,"53.257025000000","8.457504000000",0,,0,"","830-1830"
000009002976,"","Ankum Abzw. Realschule",,"52.543576000000","7.884361000000",0,,0,"","688-7688"
000009003869,"","Aurich-Kirchdorf Am Reidigermeer",,"53.442963000000","7.476389000000",0,,0,"","441-441"
000009072762,"","Oyten Oyterdamm",,"53.059174000000","8.987332000000",0,,0,"","309-1309"
000009008990,"","Bersenbrück BBS + GYM",,"52.549496000000","7.955446000000",0,,0,"","690-7690"
000009072761,"","Oyten Oyterberg",,"53.058656000000","8.998206000000",0,,0,"","310-1310"
000009008994,"","Bersenbrück Lear Corporation",,"52.556485000000","7.932311000000",0,,0,"","690-7690"
000009024107,"","Elsfleth Schulzentrum",,"53.237353000000","8.454256000000",0,,0,"","830-1830"
000009056982,"","Ludwigsdorf(Ihlow) Abzw. Weidenweg",,"53.424141000000","7.467538000000",0,,0,"","436-436"
000009056458,"","Lockhausen(Bad Essen) Alte Hunte",,"52.330130000000","8.360206000000",0,,0,"","225-7225"
000009045017,"","Höne(Fürstenau) Abzw. Höne/B 214",,"52.522717000000","7.634364000000",0,,0,"","680-7680"
000009097421,"","Welplage Altes Moor",,"52.403256000000","8.234991000000",0,,0,"","229-7229"
000009032597,"","Groß Mimmelage Riedemann",,"52.649134000000","7.902138000000",0,,0,"","696-7696"
000009015183,"","Broxten Stockhowe",,"52.392008000000","8.180148000000",0,,0,"","224-7224"
000009032598,"","Groß Mimmelage Siedlung",,"52.656352000000","7.900285000000",0,,0,"","696-7696"
000009011219,"","Bohmte Gützkower Ring",,"52.373729000000","8.327512000000",0,,0,"","228-7228"
000009032594,"","Groß Mimmelage Grother Kanal",,"52.662956000000","7.910618000000",0,,0,"","696-7696"
000009032595,"","Groß Mimmelage Kreuzung",,"52.655841000000","7.906094000000",0,,0,"","696-7696"
000009038610,"","Harpenfeld Lange Straße",,"52.330776000000","8.352184000000",0,,0,"","225-7225"
000009001973,"","Freren Schulzentrum",,"52.486670000000","7.550469000000",0,,0,"","686-7686"
000009038608,"","Harpenfeld Himmelreich",,"52.332225000000","8.343890000000",0,,0,"","225-7225"
000009032593,"","Groß Mimmelage Fehrlage",,"52.652075000000","7.890736000000",0,,0,"","696-7696"
000009045018,"","Höne(Fürstenau) Hagemann",,"52.521462000000","7.642051000000",0,,0,"","680-7680"
000009048907,"","Kettenkamp Dettmer",,"52.593361000000","7.846012000000",0,,0,"","691-7691"
000009021652,"","Dröper Böttcherstraße",,"52.196381000000","8.088747000000",0,,0,"","411-7411"
000009012933,"","Brannenheide Broermann",,"52.181343000000","8.121765000000",0,,0,"","411-7411"
000009012934,"","Brannenheide Eickhorst",,"52.180761000000","8.130289000000",0,,0,"","411-7411"
000009012932,"","Brannenheide Auf Königskamp",,"52.182892000000","8.117020000000",0,,0,"","411-7411"
000009016885,"","Bühren(Binnen) Abzw.",,"52.628823000000","9.129359000000",0,,0,"","16-16"
000009043454,"","Holtgast Schanz",,"53.631682000000","7.558226000000",0,,0,"","301-301"
000009051751,"","Krögerdorf Dreimädelhaus",,"53.146131000000","8.548705000000",0,,0,"","825-1825"
000009072726,"","Oyle Mitte",,"52.645057000000","9.146419000000",0,,0,"","1-1"
000009043451,"","Holtgast Gasthof",,"53.632043000000","7.579696000000",0,,0,"","301-301"
000009038585,"","Harmenhausen Schnare",,"53.150980000000","8.543141000000",0,,0,"","820-1820"
000009055605,"","Liebenau(Kr Nienburg) Stern",,"52.608123000000","9.087637000000",0,,0,"","16-16"
000009028901,"","Fulkum",,"53.632808000000","7.525609000000",0,,0,"","301-301"
000009040640,"","Hekeln(Berne) Meier",,"53.155096000000","8.536449000000",0,,0,"","820-1820"
000009010290,"","Binnen Abzw.",,"52.622231000000","9.122207000000",0,,0,"","16-16"
000009038863,"","Hartsgast",,"53.630673000000","7.544259000000",0,,0,"","301-301"
000009040639,"","Hekeln(Berne) Alte Schule",,"53.156505000000","8.527459000000",0,,0,"","820-1820"
000009097385,"","Wellie Transformator",,"52.575359000000","9.079463000000",0,,0,"","15-15"
000009042139,"","Hiddigwarden",,"53.162421000000","8.508424000000",0,,0,"","820-1820"
000009055602,"","Liebenau(Kr Nienburg) Hausplatz",,"52.603652000000","9.096462000000",0,,0,"","16-16"
000009092777,"","Uppum",,"53.642423000000","7.506616000000",0,,0,"","301-301"
000009071189,"","Ollen Eiben",,"53.172856000000","8.498144000000",0,,0,"","820-1820"
000009097386,"","Wellie Ziegelei",,"52.565495000000","9.077653000000",0,,0,"","15-15"
000009021146,"","Dornum Alte Poststraße",,"53.647049000000","7.430831000000",0,,0,"","540-540"
000009008944,"","Berne Comenius-Schule",,"53.181226000000","8.490103000000",0,,0,"","820-1820"
000009021656,"","Dröper Heuer",,"52.196753000000","8.085727000000",0,,0,"","411-7411"
000009097383,"","Wellie Alte Schule",,"52.572447000000","9.079347000000",0,,0,"","15-15"
000009021152,"","Dornum Schulweg",,"53.648811000000","7.433939000000",0,,0,"","540-540"
000009075752,"","Ranzenbüttel Schweriner Straße",,"53.192455000000","8.499965000000",0,,0,"","820-1820"
000009021658,"","Dröper Meer",,"52.195266000000","8.096882000000",0,,0,"","411-7411"
000009011266,"","Boitwarden Schule",,"53.340475000000","8.474435000000",0,,0,"","830-1830"
000009038868,"","Hartwarden Denkmal",,"53.409527000000","8.460876000000",0,,0,"","840-1840"
000009007482,"","Bassen Abzw. Tüchten",,"53.057356000000","9.120083000000",0,,0,"","310-1310"
000009094144,"","Visbek Abzw. Varnhorn",,"52.851669000000","8.323334000000",0,,0,"","MPL-MPL"
000009099587,"","Wildeshausen Am Spascher Sand/B 213",,"52.898993000000","8.394521000000",0,,0,"","630-1630"
000009001265,"","Ahlhorn Hageler Damm",,"52.898755000000","8.265765000000",0,,0,"","930-1930"
000009055600,"","Liebenau(Kr Nienburg) Abzw. Steyerberg",,"52.593300000000","9.096056000000",0,,0,"","16-16"
000009025736,"","Esens NIGE Sek I Gebäude",,"53.630608000000","7.612126000000",0,,0,"","301-301"
000009050371,"","Kleinenkneten Goldenstedter Straße",,"52.864551000000","8.426614000000",0,,0,"","630-1630"
000009051750,"","Krögerdorf Bargweg",,"53.143554000000","8.561677000000",0,,0,"","825-1825"
000009002949,"","Anemolter Abzw. Steyerberg",,"52.550267000000","9.071190000000",0,,0,"","11-11"
000009025727,"","Esens Bahnhof",,"53.636491000000","7.615304000000",0,,0,"","301-301"
000009051752,"","Krögerdorf Kastanienweg",,"53.145701000000","8.552964000000",0,,0,"","825-1825"
000009067025,"","Niederbeckum Rogge",,"53.424844000000","8.445854000000",0,,0,"","840-1840"
000009094443,"","Voigtei Abzw. Eckershausen",,"52.605837000000","8.905956000000",0,,0,"","15-15"
000009053037,"","Dollart Landschaftspolder 79",,"53.216378000000","7.229165000000",0,,0,"","708-708"
000009022154,"","Düdinghausen Steinfeld",,"52.575612000000","8.985073000000",0,,0,"","15-15"
000009017785,"","Charlottenpolder(Bunde) Herrenweg",,"53.206286000000","7.220853000000",0,,0,"","708-708"
000009053034,"","Dollart Landschaftspolder 23",,"53.227979000000","7.250878000000",0,,0,"","708-708"
000009053036,"","Dollart Landschaftspolder 18/43",,"53.222648000000","7.248040000000",0,,0,"","708-708"
000009030997,"","Glissen(Binnen) Ort",,"52.644684000000","9.100001000000",0,,0,"","16-16"
000009102130,"","Wymeer Grundschule",,"53.135136000000","7.224758000000",0,,0,"","735-735"
000009030996,"","Glissen(Binnen) Nord",,"52.651746000000","9.101327000000",0,,0,"","16-16"
000009053035,"","Dollart Landschaftspolder 8",,"53.253063000000","7.264175000000",0,,0,"","709-709"
000009030994,"","Glissen(Binnen) Harzwasserwerk",,"52.620143000000","9.093413000000",0,,0,"","16-16"
000009102128,"","Wymeer Wymeerster Hauptstraße/Moorstraße",,"53.134613000000","7.209893000000",0,,0,"","734-734"
000009030995,"","Glissen(Binnen) Mitte",,"52.641797000000","9.095453000000",0,,0,"","16-16"
000009102129,"","Wymeer Wymeerster Hauptstraße 61",,"53.134934000000","7.219289000000",0,,0,"","734-734"
000009043911,"","Hoope(Wulsbüttel) Mühlenweg",,"53.307607000000","8.700943000000",0,,0,"","235-1235"
000009087938,"","Steyerberg Industriestraße",,"52.576541000000","9.003380000000",0,,0,"","15-15"
000009017784,"","Bunde Charlottenpolder 9",,"53.188341000000","7.221237000000",0,,0,"","704-704"
000009103695,"","Bramstedt-Harrendorf Friedhof",,"53.349575000000","8.732128000000",0,,0,"","220-1220"
000009087941,"","Steyerberg Lebensgarten",,"52.585226000000","9.023578000000",0,,0,"","15-15"
000009035062,"","Halsbek Halsbeker Straße 173",,"53.328477000000","7.908416000000",0,,0,"","760-1760"
000009055390,"","Leuchtenburg(Rastede) Schule",,"53.229093000000","8.182011000000",0,,0,"","910-1910"
000009089807,"","Sürwürden Kaliwoda",,"53.378275000000","8.452132000000",0,,0,"","840-1840"
000009002096,"","Alserwurp Wulf",,"53.390612000000","8.433436000000",0,,0,"","840-1840"
000009002095,"","Alserwurp Blohm",,"53.385651000000","8.433944000000",0,,0,"","840-1840"
000009089379,"","Syke Bahnhof",,"52.916102000000","8.810342000000",0,,0,"","520-1520"
000009002077,"","Alse Ponyhof",,"53.381817000000","8.448139000000",0,,0,"","840-1840"
000009089695,"","Süderwalsede Schmiede",,"53.001315000000","9.362947000000",0,,0,"","135-1135"
000009097422,"","Welplage Baumann",,"52.428477000000","8.280376000000",0,,0,"","229-7229"
000009049805,"","Kirchwalsede Am Schützenholz",,"53.021726000000","9.395937000000",0,,0,"","135-1135"
000009097425,"","Welplage Klöcker",,"52.424422000000","8.287084000000",0,,0,"","229-7229"
000009077653,"","Riekenbostel Dorfstraße",,"53.033313000000","9.456432000000",0,,0,"","395-395"
000009096912,"","Wehrendorf(Bad Essen) Osnabrücker Straße",,"52.331859000000","8.315620000000",0,,0,"","225-7225"
000009077654,"","Riekenbostel Hasseler Weg",,"53.037727000000","9.459480000000",0,,0,"","395-1395"
000009020654,"","Dissen a.T.W. Schulzentrum",,"52.118623000000","8.200567000000",0,,0,"","419-7419"
000009094183,"","Visselhövede Schule",,"52.989622000000","9.585798000000",0,,0,"","390-390"
000009094638,"","Vorwalde Thelker",,"52.370974000000","8.134122000000",0,,0,"","224-7224"
000009094178,"","Visselhövede Markt",,"52.986378000000","9.580847000000",0,,0,"","390-390"
000009096911,"","Wehrendorf(Bad Essen) Masch",,"52.337430000000","8.312265000000",0,,0,"","225-7225"
000009020649,"","Dissen a.T.W. Ärztehaus",,"52.113550000000","8.206648000000",0,,0,"","419-7419"
000009094185,"","Visselhövede Stadtpark",,"52.983088000000","9.573730000000",0,,0,"","390-1390"
000009094635,"","Vorwalde Borgwedder Straße",,"52.376519000000","8.154451000000",0,,0,"","224-7224"
000009081894,"","Schmalenfleth",,"53.365174000000","8.460626000000",0,,0,"","830-1830"
000009094173,"","Visselhövede Bahnhof",,"52.980462000000","9.566331000000",0,,0,"","390-390"
000009094637,"","Vorwalde Schlingheide",,"52.376288000000","8.147325000000",0,,0,"","224-7224"
000009046851,"","Jardinghausen Denkmal",,"52.853341000000","8.852379000000",0,,0,"","520-1520"
000009041901,"","Hesepe(Bramsche) Grundschule",,"52.440479000000","7.961531000000",0,,0,"","641-7641"
000009065218,"","Neubruchhausen(Bassum) Sparkasse",,"52.840079000000","8.840532000000",0,,0,"","530-1530"
000009012848,"","Bramsche(Hase) Maschstraße",,"52.411312000000","7.982277000000",0,,0,"","640-7640"
000009100613,"","Wisloh Thoms",,"52.860247000000","8.848417000000",0,,0,"","520-1520"
000009041903,"","Hesepe(Bramsche) Krüger/LAB",,"52.444831000000","7.956242000000",0,,0,"","641-7641"
000009046850,"","Jardinghausen Auf dem Sünder",,"52.857274000000","8.853473000000",0,,0,"","520-1520"
000009065219,"","Neubruchhausen(Bassum) Steinkamp",,"52.836242000000","8.843457000000",0,,0,"","530-1530"
000009041904,"","Hesepe(Bramsche) LAB",,"52.446221000000","7.946916000000",0,,0,"","641-7641"
000009065215,"","Neubruchhausen(Bassum) Hache",,"52.839316000000","8.844845000000",0,,0,"","530-1530"
000009041896,"","Hesepe(Bramsche) B 218/Ecke Ostlandstraße",,"52.440137000000","7.954242000000",0,,0,"","641-7641"
000009039027,"","Hassel(Hemsbünde) Espernfeldweg",,"53.056462000000","9.462703000000",0,,0,"","395-395"
000009060539,"","Menninghausen Knake",,"52.811902000000","8.841043000000",0,,0,"","535-1535"
000009097428,"","Welplage Strothkanal",,"52.407245000000","8.297608000000",0,,0,"","229-7229"
000009092125,"","Ueffeln Am Kronenesch",,"52.457024000000","7.874486000000",0,,0,"","642-7642"
000009089693,"","Süderwalsede Feuerwehr",,"53.001166000000","9.368246000000",0,,0,"","135-1135"
000009065213,"","Neubruchhausen(Bassum) Forst",,"52.831096000000","8.839494000000",0,,0,"","530-1530"
000009097429,"","Welplage Vosberg",,"52.414692000000","8.295503000000",0,,0,"","229-7229"
000009067859,"","Nolle Alte Forststraße",,"52.139309000000","8.209850000000",0,,0,"","419-7419"
000009092128,"","Ueffeln Grundschule",,"52.448518000000","7.874026000000",0,,0,"","642-7642"
000009081024,"","Scharrel(Eydelstedt)",,"52.694567000000","8.609959000000",0,,0,"","550-1550"
000009102073,"","Wuthenau",,"52.696749000000","8.632641000000",0,,0,"","550-1550"
000009056478,"","Loge(Eydelstedt)",,"52.687559000000","8.587111000000",0,,0,"","550-1550"
000009006954,"","Bargeloh",,"52.688063000000","8.595314000000",0,,0,"","550-1550"
000009022446,"","Düste Wilke",,"52.677941000000","8.532826000000",0,,0,"","550-1550"
000009022445,"","Düste Freye",,"52.686157000000","8.534929000000",0,,0,"","550-1550"
000009020942,"","Donstorf",,"52.668158000000","8.547317000000",0,,0,"","550-1550"
000009065217,"","Neubruchhausen(Bassum) Karnebogen",,"52.839825000000","8.830110000000",0,,0,"","530-1530"
000009000688,"","Achmer Neuenkirchener Straße/Vor den Höfen",,"52.400844000000","7.936451000000",0,,0,"","644-7644"
000009003713,"","Herkamp Aufurth",,"52.666686000000","8.531572000000",0,,0,"","550-1550"
000009035054,"","Hallstedt(Bassum) Quellental",,"52.835597000000","8.821742000000",0,,0,"","530-1530"
000009000694,"","Achmer vor den Höfen/Ritzendiek",,"52.404268000000","7.933459000000",0,,0,"","644-7644"
000009054905,"","Lemke(Marklohe) Sulinger Straße",,"52.656885000000","9.139489000000",0,,0,"","1-1"
000009087745,"","Groß Mackenstedt Delmenhorster Straße",,"53.020461000000","8.692194000000",0,,0,"","505-1505"
000009054898,"","Lemke(Marklohe) Abzw. Oyle",,"52.660022000000","9.156972000000",0,,0,"","1-1"
000009043404,"","Holte(Wietzen) Moorheide",,"52.691335000000","9.057784000000",0,,0,"","2-2"
000009054897,"","Lemke(Marklohe) Abzw. Glissen",,"52.657638000000","9.106293000000",0,,0,"","1-1"
000009043407,"","Holte(Wietzen) Weberkuhle/Holter Straße",,"52.660723000000","9.066509000000",0,,0,"","16-16"
000009019749,"","Delmenhorst Langenwischstraße",,"53.045028000000","8.671316000000",0,,0,"","710-1710"
000009043409,"","Holte(Wietzen) Ziegelei",,"52.674644000000","9.069589000000",0,,0,"","2-2"
000009019669,"","Delmenhorst Bahnhof/ZOB",,"53.052292000000","8.629716000000",0,,0,"","710-1710"
000009012320,"","Borstel(b Sulingen) Bockhop Falldorf",,"52.665443000000","9.011670000000",0,,0,"","545-1545"
000009073337,"","Pennigsehl Abzw. B 214",,"52.663127000000","9.038861000000",0,,0,"","16-16"
000009043213,"","Hollen(Eydelstedt) Abzw. Wohlstreck",,"52.709161000000","8.604791000000",0,,0,"","550-1550"
000009050436,"","Kleinsander Hochfeldstraße/Verlängerungsweg",,"53.284380000000","7.793017000000",0,,0,"","633-633"
000009045683,"","Hüttenbusch(Worpswede) Feuerwehrgerätehaus",,"53.274983000000","8.956359000000",0,,0,"","225-1225"
000009050435,"","Kleinsander Lüdnisstraße/Kleinsander Straße",,"53.291030000000","7.796318000000",0,,0,"","633-633"
000009033077,"","Großsander Burgstraße 19/20",,"53.299739000000","7.806640000000",0,,0,"","633-633"
000009045690,"","Hüttenbusch(Worpswede) Schule",,"53.274276000000","8.967513000000",0,,0,"","225-1225"
000009016892,"","Bühren(Uplengen) Großsanderstraße/Hobargsweg",,"53.304105000000","7.778381000000",0,,0,"","630-630"
000009016893,"","Bühren(Uplengen) Großsander-/Schulstraße",,"53.302191000000","7.785487000000",0,,0,"","630-630"
000009101749,"","Worpswede Ostersoder Straße 6",,"53.312523000000","8.971644000000",0,,0,"","225-1225"
000009076629,"","Remels Ostertorstraße/Truglandsweg",,"53.306718000000","7.760735000000",0,,0,"","630-630"
000009050145,"","Klein Henstedt Schafskamp",,"52.975186000000","8.554216000000",0,,0,"","625-1625"
000009084404,"","Siedenburg Schardelmann",,"52.691469000000","8.943699000000",0,,0,"","545-1545"
000009016891,"","Bühren(Uplengen) Bührener Straße/Denkmalsweg",,"53.307716000000","7.782838000000",0,,0,"","630-630"
000009034636,"","Hagen im Bremischen Schulzentrum",,"53.353221000000","8.642451000000",0,,0,"","235-1235"
000009043184,"","Hollage Im Felde",,"52.332178000000","7.968394000000",0,,0,"","535-7535"
000009079322,"","Rulle Zum Bruch",,"52.342409000000","8.082313000000",0,,0,"","535-7535"
000009079316,"","Rulle Ostenort",,"52.342308000000","8.087671000000",0,,0,"","535-7535"
000009079307,"","Rulle Dörper Damm",,"52.339021000000","8.068474000000",0,,0,"","535-7535"
000009079305,"","Rulle Auf dem Hügel",,"52.349670000000","8.073119000000",0,,0,"","535-7535"
000009033079,"","Großsander Wittmannstraße/Ihausener Straße",,"53.290018000000","7.811016000000",0,,0,"","633-633"
000009092903,"","Uthlede Ellhornstraße",,"53.308175000000","8.579945000000",0,,0,"","235-1235"
000009033081,"","Großsander Wittmannstraße/Fuchsbergweg",,"53.288362000000","7.817137000000",0,,0,"","633-633"
000009008282,"","Benthullen Friedhofsweg",,"53.050880000000","8.137579000000",0,,0,"","925-1925"
000009008285,"","Benthullen Moormuseum",,"53.047095000000","8.129642000000",0,,0,"","925-1925"
000009000716,"","Achternholt",,"53.056577000000","8.158561000000",0,,0,"","925-1925"
000009100865,"","Wittmund Bahnhof",,"53.579289000000","7.788753000000",0,,0,"","300-300"
000009029565,"","Garrel Hinter dem Forde",,"52.965689000000","8.039648000000",0,,0,"","MPL-MPL"
000009067746,"","Nikolausdorf Abzw. Beverbruch",,"52.987851000000","8.106046000000",0,,0,"","MPL-MPL"
000009095637,"","Wallenhorst Kampholt",,"52.363171000000","7.994388000000",0,,0,"","535-7535"
000009028341,"","Freistatt(b Sulingen) Deckertau",,"52.649563000000","8.647945000000",0,,0,"","585-1585"
000009027126,"","Firrel Unlander Straße 15/26",,"53.340074000000","7.680057000000",0,,0,"","628-628"
000009094651,"","Vorwohlde(Sulingen)",,"52.713907000000","8.813829000000",0,,0,"","535-1535"
000009027129,"","Firrel Firreler Straße/Molkereistraße",,"53.335974000000","7.679087000000",0,,0,"","628-628"
000009026850,"","Feldhausen(Sulingen) B 61",,"52.657234000000","8.810488000000",0,,0,"","555-1555"
000009027125,"","Firrel Feldender-/Neufirreler Straße",,"53.341849000000","7.694292000000",0,,0,"","628-628"
000009087002,"","Stehlen B 61",,"52.666831000000","8.808978000000",0,,0,"","555-1555"
000009027133,"","Firrel Unlander-/Neufirreler Straße",,"53.342903000000","7.685150000000",0,,0,"","628-628"
000009006937,"","Barenburg Bahnhofstraße",,"52.621903000000","8.797696000000",0,,0,"","555-1555"
000009043285,"","Großoldendorf Neufirreler Straße/Hollsandsiedlung",,"53.330793000000","7.719147000000",0,,0,"","628-628"
000009006939,"","Barenburg Munterburg",,"52.628507000000","8.802854000000",0,,0,"","555-1555"
000009043284,"","Großoldendorf Neufirreler Straße 18",,"53.336805000000","7.708651000000",0,,0,"","628-628"
000009006934,"","Barenburg Abzw. Bahnhof",,"52.628432000000","8.777955000000",0,,0,"","555-1555"
000009050428,"","Kleinoldendorf Schützen-/Dorfstraße",,"53.323111000000","7.724826000000",0,,0,"","630-630"
000009008284,"","Benthullen Kirche",,"53.036995000000","8.106349000000",0,,0,"","925-1925"
000009006938,"","Barenburg Meyer",,"52.624575000000","8.785208000000",0,,0,"","555-1555"
000009050427,"","Kleinoldendorf Kleinoldendorfer Straße/Firreler Weg",,"53.319944000000","7.707853000000",0,,0,"","635-635"
000009008288,"","Benthullen Rote-Erde-Weg",,"53.030567000000","8.089499000000",0,,0,"","925-1925"
